[{"id":"210010","name":"West Eifel Volcanic Field","country":"Germany","type":"Volcanic field","evidence":"Uncertain","last_eruption":"Unknown","region":"European Volcanic Regions","subregion":"Central European Volcanic Province","elevation":null,"lat":50.17,"lon":6.85,"status":"uncertain","erupting":false},{"id":"210020","name":"Chaine des Puys","country":"France","type":"Lava dome(s)","evidence":"Uncertain","last_eruption":"Unknown","region":"European Volcanic Regions","subregion":"Western European Volcanic Province","elevation":null,"lat":45.786,"lon":2.981,"status":"uncertain","erupting":false},{"id":"210030","name":"Olot Volcanic Field","country":"Spain","type":"Volcanic field","evidence":"Uncertain","last_eruption":"Unknown","region":"European Volcanic Regions","subregion":"Western European Volcanic Province","elevation":null,"lat":42.17,"lon":2.53,"status":"uncertain","erupting":false},{"id":"210040","name":"Calatrava Volcanic Field","country":"Spain","type":"Volcanic field","evidence":"Uncertain","last_eruption":"Unknown","region":"European Volcanic Regions","subregion":"Western European Volcanic Province","elevation":null,"lat":38.87,"lon":-4.02,"status":"uncertain","erupting":false},{"id":"211004","name":"Colli Albani","country":"Italy","type":"Caldera","evidence":"Uncertain","last_eruption":"Unknown","region":"European Volcanic Regions","subregion":"Italian Peninsula Volcanic Provinces","elevation":null,"lat":41.7569,"lon":12.7251,"status":"uncertain","erupting":false},{"id":"211010","name":"Campi Flegrei","country":"Italy","type":"Caldera","evidence":"Uncertain","last_eruption":"Unknown","region":"European Volcanic Regions","subregion":"Italian Peninsula Volcanic Provinces","elevation":null,"lat":40.827,"lon":14.139,"status":"uncertain","erupting":false},{"id":"211020","name":"Vesuvius","country":"Italy","type":"Stratovolcano","evidence":"Uncertain","last_eruption":"Unknown","region":"European Volcanic Regions","subregion":"Italian Peninsula Volcanic Provinces","elevation":null,"lat":40.821,"lon":14.426,"status":"uncertain","erupting":false},{"id":"211031","name":"Palinuro","country":"Italy","type":"Compound","evidence":"Uncertain","last_eruption":"Unknown","region":"European Volcanic Regions","subregion":"Aeolian Volcanic Arc","elevation":null,"lat":39.48,"lon":14.83,"status":"uncertain","erupting":false},{"id":"211030","name":"Ischia","country":"Italy","type":"Complex","evidence":"Uncertain","last_eruption":"Unknown","region":"European Volcanic Regions","subregion":"Italian Peninsula Volcanic Provinces","elevation":null,"lat":40.73,"lon":13.897,"status":"uncertain","erupting":false},{"id":"211041","name":"Panarea","country":"Italy","type":"Stratovolcano","evidence":"Uncertain","last_eruption":"Unknown","region":"European Volcanic Regions","subregion":"Aeolian Volcanic Arc","elevation":null,"lat":38.638,"lon":15.064,"status":"uncertain","erupting":false},{"id":"211042","name":"Lipari","country":"Italy","type":"Stratovolcano(es)","evidence":"Uncertain","last_eruption":"Unknown","region":"European Volcanic Regions","subregion":"Aeolian Volcanic Arc","elevation":null,"lat":38.49,"lon":14.933,"status":"uncertain","erupting":false},{"id":"211040","name":"Stromboli","country":"Italy","type":"Stratovolcano","evidence":"Uncertain","last_eruption":"Unknown","region":"European Volcanic Regions","subregion":"Aeolian Volcanic Arc","elevation":null,"lat":38.789,"lon":15.213,"status":"uncertain","erupting":false},{"id":"211050","name":"Vulcano","country":"Italy","type":"Stratovolcano(es)","evidence":"Uncertain","last_eruption":"Unknown","region":"European Volcanic Regions","subregion":"Aeolian Volcanic Arc","elevation":null,"lat":38.404,"lon":14.962,"status":"uncertain","erupting":false},{"id":"211060","name":"Etna","country":"Italy","type":"Stratovolcano(es)","evidence":"Uncertain","last_eruption":"Unknown","region":"European Volcanic Regions","subregion":"Sicily Volcanic Province","elevation":null,"lat":37.748,"lon":14.999,"status":"uncertain","erupting":false},{"id":"211071","name":"Pantelleria","country":"Italy","type":"Shield","evidence":"Uncertain","last_eruption":"Unknown","region":"European Volcanic Regions","subregion":"Sicily Volcanic Province","elevation":null,"lat":36.77,"lon":12.02,"status":"uncertain","erupting":false},{"id":"211070","name":"Campi Flegrei del Mar di Sicilia","country":"Italy","type":"Volcanic field","evidence":"Uncertain","last_eruption":"Unknown","region":"European Volcanic Regions","subregion":"Sicily Volcanic Province","elevation":null,"lat":37.1,"lon":12.7,"status":"uncertain","erupting":false},{"id":"212020","name":"Methana","country":"Greece","type":"Lava dome(s)","evidence":"Uncertain","last_eruption":"Unknown","region":"European Volcanic Regions","subregion":"Hellenic Volcanic Arc","elevation":null,"lat":37.6186,"lon":23.3331,"status":"uncertain","erupting":false},{"id":"212030","name":"Milos","country":"Greece","type":"Stratovolcano(es)","evidence":"Uncertain","last_eruption":"Unknown","region":"European Volcanic Regions","subregion":"Hellenic Volcanic Arc","elevation":null,"lat":36.699,"lon":24.439,"status":"uncertain","erupting":false},{"id":"212040","name":"Santorini","country":"Greece","type":"Shield(s)","evidence":"Uncertain","last_eruption":"Unknown","region":"European Volcanic Regions","subregion":"Hellenic Volcanic Arc","elevation":null,"lat":36.404,"lon":25.396,"status":"uncertain","erupting":false},{"id":"212050","name":"Nisyros","country":"Greece","type":"Stratovolcano","evidence":"Uncertain","last_eruption":"Unknown","region":"European Volcanic Regions","subregion":"Hellenic Volcanic Arc","elevation":null,"lat":36.5888,"lon":27.1553,"status":"uncertain","erupting":false},{"id":"213000","name":"Kula","country":"Turkiye","type":"Volcanic field","evidence":"Uncertain","last_eruption":"Unknown","region":"European Volcanic Regions","subregion":"Western Anatolian Volcanic Province","elevation":null,"lat":38.58,"lon":28.52,"status":"uncertain","erupting":false},{"id":"213002","name":"Hasandag-Keciboyduran Volcanic Complex","country":"Turkiye","type":"Stratovolcano","evidence":"Uncertain","last_eruption":"Unknown","region":"European Volcanic Regions","subregion":"Western Anatolian Volcanic Province","elevation":null,"lat":38.13,"lon":34.17,"status":"uncertain","erupting":false},{"id":"213011","name":"Karaca Dag","country":"Turkiye","type":"Shield","evidence":"Uncertain","last_eruption":"Unknown","region":"Arabia-Central Asia Volcanic Regions","subregion":"Northern Arabia Volcanic Province","elevation":null,"lat":37.67,"lon":39.83,"status":"uncertain","erupting":false},{"id":"213010","name":"Erciyes Volcanic Complex","country":"Turkiye","type":"Stratovolcano","evidence":"Uncertain","last_eruption":"Unknown","region":"European Volcanic Regions","subregion":"Western Anatolian Volcanic Province","elevation":null,"lat":38.531,"lon":35.447,"status":"uncertain","erupting":false},{"id":"213020","name":"Nemrut Dagi","country":"Turkiye","type":"Stratovolcano","evidence":"Uncertain","last_eruption":"Unknown","region":"Arabia-Central Asia Volcanic Regions","subregion":"Central Anatolian Volcanic Province","elevation":null,"lat":38.654,"lon":42.229,"status":"uncertain","erupting":false},{"id":"213030","name":"Tenduruk Dagi","country":"Turkiye","type":"Shield","evidence":"Uncertain","last_eruption":"Unknown","region":"Arabia-Central Asia Volcanic Regions","subregion":"Central Anatolian Volcanic Province","elevation":null,"lat":39.356,"lon":43.874,"status":"uncertain","erupting":false},{"id":"213040","name":"Ararat","country":"Turkiye","type":"Stratovolcano","evidence":"Uncertain","last_eruption":"Unknown","region":"Arabia-Central Asia Volcanic Regions","subregion":"Central Anatolian Volcanic Province","elevation":null,"lat":39.7,"lon":44.3,"status":"uncertain","erupting":false},{"id":"214010","name":"Elbrus","country":"Russia","type":"Stratovolcano","evidence":"Uncertain","last_eruption":"Unknown","region":"Arabia-Central Asia Volcanic Regions","subregion":"Caucasus Volcanic Province","elevation":null,"lat":43.351,"lon":42.442,"status":"uncertain","erupting":false},{"id":"214020","name":"Kazbek","country":"Georgia","type":"Stratovolcano","evidence":"Uncertain","last_eruption":"Unknown","region":"Arabia-Central Asia Volcanic Regions","subregion":"Caucasus Volcanic Province","elevation":null,"lat":42.697,"lon":44.5184,"status":"uncertain","erupting":false},{"id":"214050","name":"Samsari Volcanic Center","country":"Georgia","type":"Volcanic field","evidence":"Uncertain","last_eruption":"Unknown","region":"Arabia-Central Asia Volcanic Regions","subregion":"Caucasus Volcanic Province","elevation":null,"lat":41.542,"lon":43.7,"status":"uncertain","erupting":false},{"id":"214060","name":"Aragats","country":"Armenia","type":"Stratovolcano","evidence":"Uncertain","last_eruption":"Unknown","region":"Arabia-Central Asia Volcanic Regions","subregion":"Caucasus Volcanic Province","elevation":null,"lat":40.53,"lon":44.2,"status":"uncertain","erupting":false},{"id":"214070","name":"Ghegham Volcanic Ridge","country":"Armenia","type":"Volcanic field","evidence":"Uncertain","last_eruption":"Unknown","region":"Arabia-Central Asia Volcanic Regions","subregion":"Caucasus Volcanic Province","elevation":null,"lat":40.283,"lon":45.0,"status":"uncertain","erupting":false},{"id":"214080","name":"Vaiyots-Sar","country":"Armenia","type":"Pyroclastic cone(s)","evidence":"Uncertain","last_eruption":"Unknown","region":"Arabia-Central Asia Volcanic Regions","subregion":"Caucasus Volcanic Province","elevation":null,"lat":39.797,"lon":45.497,"status":"uncertain","erupting":false},{"id":"214090","name":"Porak","country":"Armenia-Azerbaijan","type":"Volcanic field","evidence":"Uncertain","last_eruption":"Unknown","region":"Arabia-Central Asia Volcanic Regions","subregion":"Caucasus Volcanic Province","elevation":null,"lat":40.028,"lon":45.74,"status":"uncertain","erupting":false},{"id":"214100","name":"Tskhouk-Karckar","country":"Armenia-Azerbaijan","type":"Pyroclastic cone(s)","evidence":"Uncertain","last_eruption":"Unknown","region":"Arabia-Central Asia Volcanic Regions","subregion":"Caucasus Volcanic Province","elevation":null,"lat":39.742,"lon":45.992,"status":"uncertain","erupting":false},{"id":"221010","name":"Tair, Jebel at","country":"Yemen","type":"Stratovolcano","evidence":"Uncertain","last_eruption":"Unknown","region":"Eastern Africa Volcanic Regions","subregion":"Red Sea Rift Volcanic Province","elevation":null,"lat":15.55,"lon":41.83,"status":"uncertain","erupting":false},{"id":"221021","name":"Zukur","country":"Yemen","type":"Shield","evidence":"Uncertain","last_eruption":"Unknown","region":"Eastern Africa Volcanic Regions","subregion":"Red Sea Rift Volcanic Province","elevation":null,"lat":14.02,"lon":42.75,"status":"uncertain","erupting":false},{"id":"221022","name":"Hanish","country":"Yemen","type":"Shield","evidence":"Uncertain","last_eruption":"Unknown","region":"Eastern Africa Volcanic Regions","subregion":"Red Sea Rift Volcanic Province","elevation":null,"lat":13.72,"lon":42.73,"status":"uncertain","erupting":false},{"id":"221020","name":"Zubair Group","country":"Yemen","type":"Shield","evidence":"Uncertain","last_eruption":"Unknown","region":"Eastern Africa Volcanic Regions","subregion":"Red Sea Rift Volcanic Province","elevation":null,"lat":15.05,"lon":42.18,"status":"uncertain","erupting":false},{"id":"221041","name":"Dallol","country":"Ethiopia","type":"Explosion crater(s)","evidence":"Uncertain","last_eruption":"Unknown","region":"Eastern Africa Volcanic Regions","subregion":"Afar Rift Volcanic Province","elevation":null,"lat":14.242,"lon":40.3,"status":"uncertain","erupting":false},{"id":"221040","name":"Alid","country":"Eritrea","type":"Stratovolcano","evidence":"Uncertain","last_eruption":"Unknown","region":"Eastern Africa Volcanic Regions","subregion":"Afar Rift Volcanic Province","elevation":null,"lat":14.88,"lon":39.92,"status":"uncertain","erupting":false},{"id":"221050","name":"Gada Ale","country":"Ethiopia","type":"Stratovolcano","evidence":"Uncertain","last_eruption":"Unknown","region":"Eastern Africa Volcanic Regions","subregion":"Afar Rift Volcanic Province","elevation":null,"lat":13.975,"lon":40.408,"status":"uncertain","erupting":false},{"id":"221060","name":"Alu-Dalafilla","country":"Ethiopia","type":"Fissure vent(s)","evidence":"Uncertain","last_eruption":"Unknown","region":"Eastern Africa Volcanic Regions","subregion":"Afar Rift Volcanic Province","elevation":null,"lat":13.793,"lon":40.553,"status":"uncertain","erupting":false},{"id":"221071","name":"Bora Ale","country":"Ethiopia","type":"Stratovolcano","evidence":"Uncertain","last_eruption":"Unknown","region":"Eastern Africa Volcanic Regions","subregion":"Afar Rift Volcanic Province","elevation":null,"lat":13.725,"lon":40.6,"status":"uncertain","erupting":false},{"id":"221080","name":"Erta Ale","country":"Ethiopia","type":"Shield","evidence":"Uncertain","last_eruption":"Unknown","region":"Eastern Africa Volcanic Regions","subregion":"Afar Rift Volcanic Province","elevation":null,"lat":13.601,"lon":40.666,"status":"uncertain","erupting":false},{"id":"221091","name":"Hayli Gubbi","country":"Ethiopia","type":"Shield","evidence":"Uncertain","last_eruption":"Unknown","region":"Eastern Africa Volcanic Regions","subregion":"Afar Rift Volcanic Province","elevation":null,"lat":13.5111,"lon":40.7161,"status":"uncertain","erupting":false},{"id":"221090","name":"Ale Bagu","country":"Ethiopia","type":"Stratovolcano","evidence":"Uncertain","last_eruption":"Unknown","region":"Eastern Africa Volcanic Regions","subregion":"Afar Rift Volcanic Province","elevation":null,"lat":13.512,"lon":40.631,"status":"uncertain","erupting":false},{"id":"221101","name":"Nabro","country":"Eritrea","type":"Stratovolcano","evidence":"Uncertain","last_eruption":"Unknown","region":"Eastern Africa Volcanic Regions","subregion":"Afar Rift Volcanic Province","elevation":null,"lat":13.37,"lon":41.7,"status":"uncertain","erupting":false},{"id":"221102","name":"Mallahle","country":"Ethiopia-Eritrea","type":"Stratovolcano","evidence":"Uncertain","last_eruption":"Unknown","region":"Eastern Africa Volcanic Regions","subregion":"Afar Rift Volcanic Province","elevation":null,"lat":13.27,"lon":41.65,"status":"uncertain","erupting":false},{"id":"221103","name":"Sork Ale","country":"Ethiopia-Eritrea","type":"Stratovolcano","evidence":"Uncertain","last_eruption":"Unknown","region":"Eastern Africa Volcanic Regions","subregion":"Afar Rift Volcanic Province","elevation":null,"lat":13.18,"lon":41.725,"status":"uncertain","erupting":false},{"id":"221104","name":"Asavyo","country":"Ethiopia","type":"Shield","evidence":"Uncertain","last_eruption":"Unknown","region":"Eastern Africa Volcanic Regions","subregion":"Afar Rift Volcanic Province","elevation":null,"lat":13.098,"lon":41.599,"status":"uncertain","erupting":false},{"id":"221105","name":"Mat Ala","country":"Ethiopia","type":"Shield","evidence":"Uncertain","last_eruption":"Unknown","region":"Eastern Africa Volcanic Regions","subregion":"Afar Rift Volcanic Province","elevation":null,"lat":13.106,"lon":41.161,"status":"uncertain","erupting":false},{"id":"221106","name":"Tat Ali","country":"Ethiopia","type":"Shield","evidence":"Uncertain","last_eruption":"Unknown","region":"Eastern Africa Volcanic Regions","subregion":"Afar Rift Volcanic Province","elevation":null,"lat":13.284,"lon":41.063,"status":"uncertain","erupting":false},{"id":"221107","name":"Borawli","country":"Ethiopia","type":"Stratovolcano","evidence":"Uncertain","last_eruption":"Unknown","region":"Eastern Africa Volcanic Regions","subregion":"Afar Rift Volcanic Province","elevation":null,"lat":13.304,"lon":40.987,"status":"uncertain","erupting":false},{"id":"221100","name":"Dubbi","country":"Eritrea","type":"Stratovolcano","evidence":"Uncertain","last_eruption":"Unknown","region":"Eastern Africa Volcanic Regions","subregion":"Afar Rift Volcanic Province","elevation":null,"lat":13.579,"lon":41.809,"status":"uncertain","erupting":false},{"id":"221111","name":"Ma Alalta","country":"Ethiopia","type":"Stratovolcano","evidence":"Uncertain","last_eruption":"Unknown","region":"Eastern Africa Volcanic Regions","subregion":"Afar Rift Volcanic Province","elevation":null,"lat":13.013,"lon":40.185,"status":"uncertain","erupting":false},{"id":"221112","name":"Alayta","country":"Ethiopia","type":"Shield","evidence":"Uncertain","last_eruption":"Unknown","region":"Eastern Africa Volcanic Regions","subregion":"Afar Rift Volcanic Province","elevation":null,"lat":12.888,"lon":40.573,"status":"uncertain","erupting":false},{"id":"221113","name":"Dabbahu","country":"Ethiopia","type":"Stratovolcano","evidence":"Uncertain","last_eruption":"Unknown","region":"Eastern Africa Volcanic Regions","subregion":"Afar Rift Volcanic Province","elevation":null,"lat":12.595,"lon":40.48,"status":"uncertain","erupting":false},{"id":"221114","name":"Dabbayra","country":"Ethiopia","type":"Shield","evidence":"Uncertain","last_eruption":"Unknown","region":"Eastern Africa Volcanic Regions","subregion":"Afar Rift Volcanic Province","elevation":null,"lat":12.38,"lon":40.07,"status":"uncertain","erupting":false},{"id":"221115","name":"Manda Hararo","country":"Ethiopia","type":"Shield(s)","evidence":"Uncertain","last_eruption":"Unknown","region":"Eastern Africa Volcanic Regions","subregion":"Afar Rift Volcanic Province","elevation":null,"lat":12.17,"lon":40.82,"status":"uncertain","erupting":false},{"id":"221116","name":"Groppo","country":"Ethiopia","type":"Volcanic field","evidence":"Uncertain","last_eruption":"Unknown","region":"Eastern Africa Volcanic Regions","subregion":"Afar Rift Volcanic Province","elevation":null,"lat":11.816,"lon":40.242,"status":"uncertain","erupting":false},{"id":"221110","name":"Afdera","country":"Ethiopia","type":"Stratovolcano","evidence":"Uncertain","last_eruption":"Unknown","region":"Eastern Africa Volcanic Regions","subregion":"Afar Rift Volcanic Province","elevation":null,"lat":13.088,"lon":40.853,"status":"uncertain","erupting":false},{"id":"221127","name":"Manda Gargori","country":"Ethiopia","type":"Fissure vent(s)","evidence":"Uncertain","last_eruption":"Unknown","region":"Eastern Africa Volcanic Regions","subregion":"Afar Rift Volcanic Province","elevation":null,"lat":11.75,"lon":41.48,"status":"uncertain","erupting":false},{"id":"221122","name":"Manda-Inakir","country":"Ethiopia-Djibouti","type":"Fissure vent(s)","evidence":"Uncertain","last_eruption":"Unknown","region":"Eastern Africa Volcanic Regions","subregion":"Afar Rift Volcanic Province","elevation":null,"lat":12.38,"lon":42.2,"status":"uncertain","erupting":false},{"id":"221123","name":"Mousa Alli","country":"Ethiopia-Eritrea-Djibouti","type":"Stratovolcano","evidence":"Uncertain","last_eruption":"Unknown","region":"Eastern Africa Volcanic Regions","subregion":"Afar Rift Volcanic Province","elevation":null,"lat":12.469,"lon":42.404,"status":"uncertain","erupting":false},{"id":"221124","name":"Gufa","country":"Eritrea-Djibouti","type":"Volcanic field","evidence":"Uncertain","last_eruption":"Unknown","region":"Eastern Africa Volcanic Regions","subregion":"Afar Rift Volcanic Province","elevation":null,"lat":12.55,"lon":42.53,"status":"uncertain","erupting":false},{"id":"221125","name":"Assab Volcanic Field","country":"Eritrea","type":"Volcanic field","evidence":"Uncertain","last_eruption":"Unknown","region":"Eastern Africa Volcanic Regions","subregion":"Afar Rift Volcanic Province","elevation":null,"lat":12.95,"lon":42.43,"status":"uncertain","erupting":false},{"id":"221126","name":"Ardoukoba","country":"Djibouti","type":"Fissure vent(s)","evidence":"Uncertain","last_eruption":"Unknown","region":"Eastern Africa Volcanic Regions","subregion":"Afar Rift Volcanic Province","elevation":null,"lat":11.58,"lon":42.47,"status":"uncertain","erupting":false},{"id":"221120","name":"Kurub","country":"Ethiopia","type":"Shield","evidence":"Uncertain","last_eruption":"Unknown","region":"Eastern Africa Volcanic Regions","subregion":"Afar Rift Volcanic Province","elevation":null,"lat":11.88,"lon":41.208,"status":"uncertain","erupting":false},{"id":"221141","name":"Dama Ali","country":"Ethiopia","type":"Shield","evidence":"Uncertain","last_eruption":"Unknown","region":"Eastern Africa Volcanic Regions","subregion":"Main Ethiopian Rift Volcanic Province","elevation":null,"lat":11.28,"lon":41.63,"status":"uncertain","erupting":false},{"id":"221151","name":"Yangudi","country":"Ethiopia","type":"Complex","evidence":"Uncertain","last_eruption":"Unknown","region":"Eastern Africa Volcanic Regions","subregion":"Main Ethiopian Rift Volcanic Province","elevation":null,"lat":10.58,"lon":41.042,"status":"uncertain","erupting":false},{"id":"221150","name":"Gabillema","country":"Ethiopia","type":"Stratovolcano","evidence":"Uncertain","last_eruption":"Unknown","region":"Eastern Africa Volcanic Regions","subregion":"Main Ethiopian Rift Volcanic Province","elevation":null,"lat":11.08,"lon":41.27,"status":"uncertain","erupting":false},{"id":"221160","name":"Ayelu","country":"Ethiopia","type":"Stratovolcano","evidence":"Uncertain","last_eruption":"Unknown","region":"Eastern Africa Volcanic Regions","subregion":"Main Ethiopian Rift Volcanic Province","elevation":null,"lat":10.082,"lon":40.702,"status":"uncertain","erupting":false},{"id":"221171","name":"Hertali","country":"Ethiopia","type":"Fissure vent","evidence":"Uncertain","last_eruption":"Unknown","region":"Eastern Africa Volcanic Regions","subregion":"Main Ethiopian Rift Volcanic Province","elevation":null,"lat":9.78,"lon":40.33,"status":"uncertain","erupting":false},{"id":"221172","name":"Liado Hayk","country":"Ethiopia","type":"Volcanic field","evidence":"Uncertain","last_eruption":"Unknown","region":"Eastern Africa Volcanic Regions","subregion":"Main Ethiopian Rift Volcanic Province","elevation":null,"lat":9.57,"lon":40.28,"status":"uncertain","erupting":false},{"id":"221170","name":"Adwa","country":"Ethiopia","type":"Stratovolcano","evidence":"Uncertain","last_eruption":"Unknown","region":"Eastern Africa Volcanic Regions","subregion":"Main Ethiopian Rift Volcanic Province","elevation":null,"lat":10.063,"lon":40.831,"status":"uncertain","erupting":false},{"id":"221180","name":"Dofen","country":"Ethiopia","type":"Shield","evidence":"Uncertain","last_eruption":"Unknown","region":"Eastern Africa Volcanic Regions","subregion":"Main Ethiopian Rift Volcanic Province","elevation":null,"lat":9.35,"lon":40.13,"status":"uncertain","erupting":false},{"id":"221191","name":"Beru","country":"Ethiopia","type":"Volcanic field","evidence":"Uncertain","last_eruption":"Unknown","region":"Eastern Africa Volcanic Regions","subregion":"Main Ethiopian Rift Volcanic Province","elevation":null,"lat":8.95,"lon":39.75,"status":"uncertain","erupting":false},{"id":"221190","name":"Fentale","country":"Ethiopia","type":"Stratovolcano","evidence":"Uncertain","last_eruption":"Unknown","region":"Eastern Africa Volcanic Regions","subregion":"Main Ethiopian Rift Volcanic Province","elevation":null,"lat":8.985,"lon":39.906,"status":"uncertain","erupting":false},{"id":"221200","name":"Kone","country":"Ethiopia","type":"Caldera(s)","evidence":"Uncertain","last_eruption":"Unknown","region":"Eastern Africa Volcanic Regions","subregion":"Main Ethiopian Rift Volcanic Province","elevation":null,"lat":8.8105,"lon":39.6946,"status":"uncertain","erupting":false},{"id":"221210","name":"Boset","country":"Ethiopia","type":"Stratovolcano(es)","evidence":"Uncertain","last_eruption":"Unknown","region":"Eastern Africa Volcanic Regions","subregion":"Main Ethiopian Rift Volcanic Province","elevation":null,"lat":8.558,"lon":39.475,"status":"uncertain","erupting":false},{"id":"221220","name":"Bishoftu Volcanic Field","country":"Ethiopia","type":"Volcanic field","evidence":"Uncertain","last_eruption":"Unknown","region":"Eastern Africa Volcanic Regions","subregion":"Main Ethiopian Rift Volcanic Province","elevation":null,"lat":8.78,"lon":38.98,"status":"uncertain","erupting":false},{"id":"221222","name":"Melkassa","country":"Ethiopia","type":"Volcanic field","evidence":"Uncertain","last_eruption":"Unknown","region":"Eastern Africa Volcanic Regions","subregion":"Main Ethiopian Rift Volcanic Province","elevation":null,"lat":8.43,"lon":39.35,"status":"uncertain","erupting":false},{"id":"221230","name":"Gedemsa","country":"Ethiopia","type":"Caldera","evidence":"Uncertain","last_eruption":"Unknown","region":"Eastern Africa Volcanic Regions","subregion":"Main Ethiopian Rift Volcanic Province","elevation":null,"lat":8.363,"lon":39.172,"status":"uncertain","erupting":false},{"id":"221250","name":"Bora-Bericha-Tullu Moye","country":"Ethiopia","type":"Pyroclastic cone","evidence":"Uncertain","last_eruption":"Unknown","region":"Eastern Africa Volcanic Regions","subregion":"Main Ethiopian Rift Volcanic Province","elevation":null,"lat":8.2114,"lon":39.0812,"status":"uncertain","erupting":false},{"id":"221252","name":"East Ziway","country":"Ethiopia","type":"Fissure vent(s)","evidence":"Uncertain","last_eruption":"Unknown","region":"Eastern Africa Volcanic Regions","subregion":"Main Ethiopian Rift Volcanic Province","elevation":null,"lat":7.874,"lon":38.902,"status":"uncertain","erupting":false},{"id":"221260","name":"Butajiri-Silti Field","country":"Ethiopia","type":"Volcanic field","evidence":"Uncertain","last_eruption":"Unknown","region":"Eastern Africa Volcanic Regions","subregion":"Main Ethiopian Rift Volcanic Province","elevation":null,"lat":8.05,"lon":38.35,"status":"uncertain","erupting":false},{"id":"221270","name":"Aluto","country":"Ethiopia","type":"Stratovolcano","evidence":"Uncertain","last_eruption":"Unknown","region":"Eastern Africa Volcanic Regions","subregion":"Main Ethiopian Rift Volcanic Province","elevation":null,"lat":7.77,"lon":38.78,"status":"uncertain","erupting":false},{"id":"221280","name":"Shala","country":"Ethiopia","type":"Caldera","evidence":"Uncertain","last_eruption":"Unknown","region":"Eastern Africa Volcanic Regions","subregion":"Main Ethiopian Rift Volcanic Province","elevation":null,"lat":7.4569,"lon":38.5571,"status":"uncertain","erupting":false},{"id":"221290","name":"Corbetti","country":"Ethiopia","type":"Caldera","evidence":"Uncertain","last_eruption":"Unknown","region":"Eastern Africa Volcanic Regions","subregion":"Main Ethiopian Rift Volcanic Province","elevation":null,"lat":7.193,"lon":38.39,"status":"uncertain","erupting":false},{"id":"221291","name":"Bilate River Field","country":"Ethiopia","type":"Volcanic field","evidence":"Uncertain","last_eruption":"Unknown","region":"Eastern Africa Volcanic Regions","subregion":"Main Ethiopian Rift Volcanic Province","elevation":null,"lat":7.07,"lon":38.1,"status":"uncertain","erupting":false},{"id":"221320","name":"Korath Range","country":"Ethiopia","type":"Tuff cone(s)","evidence":"Uncertain","last_eruption":"Unknown","region":"Eastern Africa Volcanic Regions","subregion":"Kenyan Rift Volcanic Province","elevation":null,"lat":5.117,"lon":35.892,"status":"uncertain","erupting":false},{"id":"222001","name":"Lake Turkana North Island","country":"Kenya","type":"Tuff cone(s)","evidence":"Uncertain","last_eruption":"Unknown","region":"Eastern Africa Volcanic Regions","subregion":"Kenyan Rift Volcanic Province","elevation":null,"lat":4.0631,"lon":36.0458,"status":"uncertain","erupting":false},{"id":"222010","name":"Lake Turkana Central Island","country":"Kenya","type":"Tuff cone(s)","evidence":"Uncertain","last_eruption":"Unknown","region":"Eastern Africa Volcanic Regions","subregion":"Kenyan Rift Volcanic Province","elevation":null,"lat":3.496,"lon":36.0365,"status":"uncertain","erupting":false},{"id":"222021","name":"Marsabit","country":"Kenya","type":"Shield","evidence":"Uncertain","last_eruption":"Unknown","region":"Eastern Africa Volcanic Regions","subregion":"Kenyan Rift Volcanic Province","elevation":null,"lat":2.32,"lon":37.97,"status":"uncertain","erupting":false},{"id":"222020","name":"Lake Turkana South Island","country":"Kenya","type":"Stratovolcano","evidence":"Uncertain","last_eruption":"Unknown","region":"Eastern Africa Volcanic Regions","subregion":"Kenyan Rift Volcanic Province","elevation":null,"lat":2.6364,"lon":36.5958,"status":"uncertain","erupting":false},{"id":"222030","name":"Barrier, The","country":"Kenya","type":"Shield","evidence":"Uncertain","last_eruption":"Unknown","region":"Eastern Africa Volcanic Regions","subregion":"Kenyan Rift Volcanic Province","elevation":null,"lat":2.32,"lon":36.57,"status":"uncertain","erupting":false},{"id":"222040","name":"Namarunu","country":"Kenya","type":"Shield","evidence":"Uncertain","last_eruption":"Unknown","region":"Eastern Africa Volcanic Regions","subregion":"Kenyan Rift Volcanic Province","elevation":null,"lat":1.98,"lon":36.43,"status":"uncertain","erupting":false},{"id":"222050","name":"Segererua Plateau","country":"Kenya","type":"Pyroclastic cone(s)","evidence":"Uncertain","last_eruption":"Unknown","region":"Eastern Africa Volcanic Regions","subregion":"Kenyan Rift Volcanic Province","elevation":null,"lat":1.57,"lon":37.9,"status":"uncertain","erupting":false},{"id":"222051","name":"Emuruangogolak","country":"Kenya","type":"Shield","evidence":"Uncertain","last_eruption":"Unknown","region":"Eastern Africa Volcanic Regions","subregion":"Kenyan Rift Volcanic Province","elevation":null,"lat":1.5,"lon":36.33,"status":"uncertain","erupting":false},{"id":"222052","name":"Silali","country":"Kenya","type":"Shield","evidence":"Uncertain","last_eruption":"Unknown","region":"Eastern Africa Volcanic Regions","subregion":"Kenyan Rift Volcanic Province","elevation":null,"lat":1.15,"lon":36.23,"status":"uncertain","erupting":false},{"id":"222053","name":"Paka","country":"Kenya","type":"Shield","evidence":"Uncertain","last_eruption":"Unknown","region":"Eastern Africa Volcanic Regions","subregion":"Kenyan Rift Volcanic Province","elevation":null,"lat":0.92,"lon":36.18,"status":"uncertain","erupting":false},{"id":"222054","name":"Korosi","country":"Kenya","type":"Shield","evidence":"Uncertain","last_eruption":"Unknown","region":"Eastern Africa Volcanic Regions","subregion":"Kenyan Rift Volcanic Province","elevation":null,"lat":0.77,"lon":36.12,"status":"uncertain","erupting":false},{"id":"222055","name":"Ol Kokwe","country":"Kenya","type":"Shield","evidence":"Uncertain","last_eruption":"Unknown","region":"Eastern Africa Volcanic Regions","subregion":"Kenyan Rift Volcanic Province","elevation":null,"lat":0.62,"lon":36.075,"status":"uncertain","erupting":false},{"id":"222056","name":"Nyambeni Hills","country":"Kenya","type":"Shield","evidence":"Uncertain","last_eruption":"Unknown","region":"Eastern Africa Volcanic Regions","subregion":"Kenyan Rift Volcanic Province","elevation":null,"lat":0.23,"lon":37.87,"status":"uncertain","erupting":false},{"id":"222060","name":"Menengai","country":"Kenya","type":"Shield","evidence":"Uncertain","last_eruption":"Unknown","region":"Eastern Africa Volcanic Regions","subregion":"Kenyan Rift Volcanic Province","elevation":null,"lat":-0.2,"lon":36.07,"status":"uncertain","erupting":false},{"id":"222071","name":"Elmenteita Badlands","country":"Kenya","type":"Pyroclastic cone(s)","evidence":"Uncertain","last_eruption":"Unknown","region":"Eastern Africa Volcanic Regions","subregion":"Kenyan Rift Volcanic Province","elevation":null,"lat":-0.546,"lon":36.249,"status":"uncertain","erupting":false},{"id":"222070","name":"Homa Mountain","country":"Kenya","type":"Complex","evidence":"Uncertain","last_eruption":"Unknown","region":"Eastern Africa Volcanic Regions","subregion":"Kenyan Rift Volcanic Province","elevation":null,"lat":-0.38,"lon":34.5,"status":"uncertain","erupting":false},{"id":"222080","name":"Eburru, Ol Doinyo","country":"Kenya","type":"Complex","evidence":"Uncertain","last_eruption":"Unknown","region":"Eastern Africa Volcanic Regions","subregion":"Kenyan Rift Volcanic Province","elevation":null,"lat":-0.65,"lon":36.22,"status":"uncertain","erupting":false},{"id":"222090","name":"Olkaria","country":"Kenya","type":"Pyroclastic cone(s)","evidence":"Uncertain","last_eruption":"Unknown","region":"Eastern Africa Volcanic Regions","subregion":"Kenyan Rift Volcanic Province","elevation":null,"lat":-0.904,"lon":36.292,"status":"uncertain","erupting":false},{"id":"222100","name":"Longonot","country":"Kenya","type":"Stratovolcano","evidence":"Uncertain","last_eruption":"Unknown","region":"Eastern Africa Volcanic Regions","subregion":"Kenyan Rift Volcanic Province","elevation":null,"lat":-0.914,"lon":36.446,"status":"uncertain","erupting":false},{"id":"222110","name":"Suswa","country":"Kenya","type":"Shield","evidence":"Uncertain","last_eruption":"Unknown","region":"Eastern Africa Volcanic Regions","subregion":"Kenyan Rift Volcanic Province","elevation":null,"lat":-1.151,"lon":36.357,"status":"uncertain","erupting":false},{"id":"222120","name":"Lengai, Ol Doinyo","country":"Tanzania","type":"Stratovolcano","evidence":"Uncertain","last_eruption":"Unknown","region":"Eastern Africa Volcanic Regions","subregion":"Kenyan Rift Volcanic Province","elevation":null,"lat":-2.764,"lon":35.914,"status":"uncertain","erupting":false},{"id":"222130","name":"Chyulu Hills","country":"Kenya","type":"Volcanic field","evidence":"Uncertain","last_eruption":"Unknown","region":"Eastern Africa Volcanic Regions","subregion":"Kenyan Rift Volcanic Province","elevation":null,"lat":-2.68,"lon":37.88,"status":"uncertain","erupting":false},{"id":"222164","name":"Ngozi","country":"Tanzania","type":"Caldera","evidence":"Uncertain","last_eruption":"Unknown","region":"Eastern Africa Volcanic Regions","subregion":"Rukwa Rift Volcanic Province","elevation":null,"lat":-9.0036,"lon":33.552,"status":"uncertain","erupting":false},{"id":"222166","name":"Rungwe","country":"Tanzania","type":"Stratovolcano","evidence":"Uncertain","last_eruption":"Unknown","region":"Eastern Africa Volcanic Regions","subregion":"Rukwa Rift Volcanic Province","elevation":null,"lat":-9.135,"lon":33.668,"status":"uncertain","erupting":false},{"id":"222160","name":"Meru","country":"Tanzania","type":"Stratovolcano","evidence":"Uncertain","last_eruption":"Unknown","region":"Eastern Africa Volcanic Regions","subregion":"Kenyan Rift Volcanic Province","elevation":null,"lat":-3.244,"lon":36.75,"status":"uncertain","erupting":false},{"id":"222170","name":"Kyejo","country":"Tanzania","type":"Stratovolcano","evidence":"Uncertain","last_eruption":"Unknown","region":"Eastern Africa Volcanic Regions","subregion":"Rukwa Rift Volcanic Province","elevation":null,"lat":-9.229,"lon":33.792,"status":"uncertain","erupting":false},{"id":"223001","name":"Fort Portal Volcanic Field","country":"Uganda","type":"Volcanic field","evidence":"Uncertain","last_eruption":"Unknown","region":"Eastern Africa Volcanic Regions","subregion":"Albertine Rift Volcanic Province","elevation":null,"lat":0.7,"lon":30.25,"status":"uncertain","erupting":false},{"id":"223002","name":"Ndali-Kasenda Volcanic Field","country":"Uganda","type":"Volcanic field","evidence":"Uncertain","last_eruption":"Unknown","region":"Eastern Africa Volcanic Regions","subregion":"Albertine Rift Volcanic Province","elevation":null,"lat":0.4583,"lon":30.275,"status":"uncertain","erupting":false},{"id":"223020","name":"Nyamulagira","country":"DR Congo","type":"Shield","evidence":"Uncertain","last_eruption":"Unknown","region":"Eastern Africa Volcanic Regions","subregion":"Albertine Rift Volcanic Province","elevation":null,"lat":-1.408,"lon":29.2,"status":"uncertain","erupting":false},{"id":"223030","name":"Nyiragongo","country":"DR Congo","type":"Stratovolcano","evidence":"Uncertain","last_eruption":"Unknown","region":"Eastern Africa Volcanic Regions","subregion":"Albertine Rift Volcanic Province","elevation":null,"lat":-1.52,"lon":29.25,"status":"uncertain","erupting":false},{"id":"223040","name":"Karisimbi","country":"DR Congo-Rwanda","type":"Stratovolcano","evidence":"Uncertain","last_eruption":"Unknown","region":"Eastern Africa Volcanic Regions","subregion":"Albertine Rift Volcanic Province","elevation":null,"lat":-1.506,"lon":29.45,"status":"uncertain","erupting":false},{"id":"224004","name":"Basile, Pico","country":"Equatorial Guinea","type":"Shield","evidence":"Uncertain","last_eruption":"Unknown","region":"Northern Africa Volcanic Regions","subregion":"Western Africa Volcanic Province","elevation":null,"lat":3.588,"lon":8.762,"status":"uncertain","erupting":false},{"id":"224011","name":"Tombel Graben","country":"Cameroon","type":"Volcanic field","evidence":"Uncertain","last_eruption":"Unknown","region":"Northern Africa Volcanic Regions","subregion":"Western Africa Volcanic Province","elevation":null,"lat":4.758,"lon":9.717,"status":"uncertain","erupting":false},{"id":"224010","name":"Cameroon","country":"Cameroon","type":"Stratovolcano","evidence":"Uncertain","last_eruption":"Unknown","region":"Northern Africa Volcanic Regions","subregion":"Western Africa Volcanic Province","elevation":null,"lat":4.203,"lon":9.17,"status":"uncertain","erupting":false},{"id":"224030","name":"Oku Volcanic Field","country":"Cameroon","type":"Volcanic field","evidence":"Uncertain","last_eruption":"Unknown","region":"Northern Africa Volcanic Regions","subregion":"Western Africa Volcanic Province","elevation":null,"lat":6.25,"lon":10.5,"status":"uncertain","erupting":false},{"id":"225001","name":"Todra Volcanic Field","country":"Niger","type":"Volcanic field","evidence":"Uncertain","last_eruption":"Unknown","region":"Northern Africa Volcanic Regions","subregion":"West Central Sahara Volcanic Province","elevation":null,"lat":17.68,"lon":8.5,"status":"uncertain","erupting":false},{"id":"225004","name":"Tahalra Volcanic Field","country":"Algeria","type":"Volcanic field","evidence":"Uncertain","last_eruption":"Unknown","region":"Northern Africa Volcanic Regions","subregion":"West Central Sahara Volcanic Province","elevation":null,"lat":22.67,"lon":5.0,"status":"uncertain","erupting":false},{"id":"225005","name":"Atakor Volcanic Field","country":"Algeria","type":"Volcanic field","evidence":"Uncertain","last_eruption":"Unknown","region":"Northern Africa Volcanic Regions","subregion":"West Central Sahara Volcanic Province","elevation":null,"lat":23.33,"lon":5.83,"status":"uncertain","erupting":false},{"id":"225006","name":"Manzaz Volcanic Field","country":"Algeria","type":"Volcanic field","evidence":"Uncertain","last_eruption":"Unknown","region":"Northern Africa Volcanic Regions","subregion":"West Central Sahara Volcanic Province","elevation":null,"lat":23.92,"lon":5.83,"status":"uncertain","erupting":false},{"id":"225009","name":"Toh, Tarso","country":"Chad","type":"Volcanic field","evidence":"Uncertain","last_eruption":"Unknown","region":"Northern Africa Volcanic Regions","subregion":"East Central Sahara Volcanic Province","elevation":null,"lat":21.33,"lon":16.33,"status":"uncertain","erupting":false},{"id":"225010","name":"Tousside, Tarso","country":"Chad","type":"Stratovolcano","evidence":"Uncertain","last_eruption":"Unknown","region":"Northern Africa Volcanic Regions","subregion":"East Central Sahara Volcanic Province","elevation":null,"lat":21.0408,"lon":16.473,"status":"uncertain","erupting":false},{"id":"225021","name":"Koussi, Emi","country":"Chad","type":"Shield(pyroclastic)","evidence":"Uncertain","last_eruption":"Unknown","region":"Northern Africa Volcanic Regions","subregion":"East Central Sahara Volcanic Province","elevation":null,"lat":19.8,"lon":18.53,"status":"uncertain","erupting":false},{"id":"225020","name":"Voon, Tarso","country":"Chad","type":"Stratovolcano","evidence":"Uncertain","last_eruption":"Unknown","region":"Northern Africa Volcanic Regions","subregion":"East Central Sahara Volcanic Province","elevation":null,"lat":20.92,"lon":17.28,"status":"uncertain","erupting":false},{"id":"225030","name":"Marra, Jebel","country":"Sudan","type":"Volcanic field","evidence":"Uncertain","last_eruption":"Unknown","region":"Northern Africa Volcanic Regions","subregion":"Southeast Sahara Volcanic Province","elevation":null,"lat":12.95,"lon":24.27,"status":"uncertain","erupting":false},{"id":"225040","name":"Kutum Volcanic Field","country":"Sudan","type":"Volcanic field","evidence":"Uncertain","last_eruption":"Unknown","region":"Northern Africa Volcanic Regions","subregion":"Southeast Sahara Volcanic Province","elevation":null,"lat":14.57,"lon":25.85,"status":"uncertain","erupting":false},{"id":"225050","name":"Meidob Volcanic Field","country":"Sudan","type":"Volcanic field","evidence":"Uncertain","last_eruption":"Unknown","region":"Northern Africa Volcanic Regions","subregion":"Southeast Sahara Volcanic Province","elevation":null,"lat":15.32,"lon":26.47,"status":"uncertain","erupting":false},{"id":"225060","name":"Bayuda Volcanic Field","country":"Sudan","type":"Volcanic field","evidence":"Uncertain","last_eruption":"Unknown","region":"Northern Africa Volcanic Regions","subregion":"Southeast Sahara Volcanic Province","elevation":null,"lat":18.33,"lon":32.75,"status":"uncertain","erupting":false},{"id":"231001","name":"Ash Shaam, Harrat","country":"Syria-Jordan-Saudi Arabia","type":"Volcanic field","evidence":"Uncertain","last_eruption":"Unknown","region":"Arabia-Central Asia Volcanic Regions","subregion":"Northern Arabia Volcanic Province","elevation":null,"lat":32.333,"lon":37.583,"status":"uncertain","erupting":false},{"id":"231040","name":"Lunayyir, Harrat","country":"Saudi Arabia","type":"Volcanic field","evidence":"Uncertain","last_eruption":"Unknown","region":"Arabia-Central Asia Volcanic Regions","subregion":"Western Arabia Volcanic Province","elevation":null,"lat":25.17,"lon":37.75,"status":"uncertain","erupting":false},{"id":"231050","name":"Ithnayn, Harrat","country":"Saudi Arabia","type":"Volcanic field","evidence":"Uncertain","last_eruption":"Unknown","region":"Arabia-Central Asia Volcanic Regions","subregion":"Western Arabia Volcanic Province","elevation":null,"lat":26.58,"lon":40.2,"status":"uncertain","erupting":false},{"id":"231060","name":"Khaybar, Harrat","country":"Saudi Arabia","type":"Volcanic field","evidence":"Uncertain","last_eruption":"Unknown","region":"Arabia-Central Asia Volcanic Regions","subregion":"Western Arabia Volcanic Province","elevation":null,"lat":25.5,"lon":40.0,"status":"uncertain","erupting":false},{"id":"231071","name":"Kishb, Harrat","country":"Saudi Arabia","type":"Volcanic field","evidence":"Uncertain","last_eruption":"Unknown","region":"Arabia-Central Asia Volcanic Regions","subregion":"Western Arabia Volcanic Province","elevation":null,"lat":22.8,"lon":41.38,"status":"uncertain","erupting":false},{"id":"231072","name":"Birk, Harrat al","country":"Saudi Arabia","type":"Volcanic field","evidence":"Uncertain","last_eruption":"Unknown","region":"Arabia-Central Asia Volcanic Regions","subregion":"Southwest Arabia Volcanic Province","elevation":null,"lat":18.37,"lon":41.63,"status":"uncertain","erupting":false},{"id":"231070","name":"Rahat, Harrat","country":"Saudi Arabia","type":"Volcanic field","evidence":"Uncertain","last_eruption":"Unknown","region":"Arabia-Central Asia Volcanic Regions","subregion":"Western Arabia Volcanic Province","elevation":null,"lat":23.08,"lon":39.78,"status":"uncertain","erupting":false},{"id":"231080","name":"Yar, Jabal","country":"Saudi Arabia","type":"Volcanic field","evidence":"Uncertain","last_eruption":"Unknown","region":"Arabia-Central Asia Volcanic Regions","subregion":"Southwest Arabia Volcanic Province","elevation":null,"lat":17.05,"lon":42.83,"status":"uncertain","erupting":false},{"id":"231090","name":"Arhab, Harra of","country":"Yemen","type":"Volcanic field","evidence":"Uncertain","last_eruption":"Unknown","region":"Arabia-Central Asia Volcanic Regions","subregion":"Southwest Arabia Volcanic Province","elevation":null,"lat":15.6025,"lon":44.0978,"status":"uncertain","erupting":false},{"id":"231110","name":"Haylan, Jabal","country":"Yemen","type":"Volcanic field","evidence":"Uncertain","last_eruption":"Unknown","region":"Arabia-Central Asia Volcanic Regions","subregion":"Southwest Arabia Volcanic Province","elevation":null,"lat":15.4,"lon":45.1,"status":"uncertain","erupting":false},{"id":"231120","name":"Dhamar, Harras of","country":"Yemen","type":"Volcanic field","evidence":"Uncertain","last_eruption":"Unknown","region":"Arabia-Central Asia Volcanic Regions","subregion":"Southwest Arabia Volcanic Province","elevation":null,"lat":14.57,"lon":44.67,"status":"uncertain","erupting":false},{"id":"231160","name":"Sawad, Harra Es-","country":"Yemen","type":"Volcanic field","evidence":"Uncertain","last_eruption":"Unknown","region":"Arabia-Central Asia Volcanic Regions","subregion":"Southwest Arabia Volcanic Province","elevation":null,"lat":13.58,"lon":46.12,"status":"uncertain","erupting":false},{"id":"231170","name":"Balhaf-Bir Ali Volcanic Field","country":"Yemen","type":"Volcanic field","evidence":"Uncertain","last_eruption":"Unknown","region":"Arabia-Central Asia Volcanic Regions","subregion":"Southwest Arabia Volcanic Province","elevation":null,"lat":14.067,"lon":48.3,"status":"uncertain","erupting":false},{"id":"231180","name":"Bir Borhut","country":"Yemen","type":"Volcanic field","evidence":"Uncertain","last_eruption":"Unknown","region":"Arabia-Central Asia Volcanic Regions","subregion":"Southwest Arabia Volcanic Province","elevation":null,"lat":15.515,"lon":50.935,"status":"uncertain","erupting":false},{"id":"232010","name":"Damavand","country":"Iran","type":"Stratovolcano","evidence":"Uncertain","last_eruption":"Unknown","region":"Arabia-Central Asia Volcanic Regions","subregion":"Caucasus Volcanic Province","elevation":null,"lat":35.951,"lon":52.109,"status":"uncertain","erupting":false},{"id":"233001","name":"Grille, La","country":"Union of the Comoros","type":"Shield","evidence":"Uncertain","last_eruption":"Unknown","region":"Somalian-Antarctic Volcanic Regions","subregion":"Madagascar-Comoros Volcanic Province","elevation":null,"lat":-11.4861,"lon":43.35,"status":"uncertain","erupting":false},{"id":"233005","name":"Mayotte","country":"France","type":"Shield","evidence":"Uncertain","last_eruption":"Unknown","region":"Somalian-Antarctic Volcanic Regions","subregion":"Madagascar-Comoros Volcanic Province","elevation":null,"lat":-12.83,"lon":45.17,"status":"uncertain","erupting":false},{"id":"233010","name":"Karthala","country":"Union of the Comoros","type":"Shield","evidence":"Uncertain","last_eruption":"Unknown","region":"Somalian-Antarctic Volcanic Regions","subregion":"Madagascar-Comoros Volcanic Province","elevation":null,"lat":-11.7658,"lon":43.3639,"status":"uncertain","erupting":false},{"id":"233020","name":"Fournaise, Piton de la","country":"France","type":"Shield","evidence":"Uncertain","last_eruption":"Unknown","region":"Somalian-Antarctic Volcanic Regions","subregion":"Reunion Hotspot Volcano Group","elevation":null,"lat":-21.244,"lon":55.708,"status":"uncertain","erupting":false},{"id":"234000","name":"Boomerang Seamount","country":"France","type":"Caldera","evidence":"Uncertain","last_eruption":"Unknown","region":"Somalian-Antarctic Volcanic Regions","subregion":"Amsterdam-St. Paul Hotspot Volcano Group","elevation":null,"lat":-37.7216,"lon":77.8221,"status":"uncertain","erupting":false},{"id":"234001","name":"Amsterdam Island","country":"France","type":"Stratovolcano","evidence":"Uncertain","last_eruption":"Unknown","region":"Somalian-Antarctic Volcanic Regions","subregion":"Amsterdam-St. Paul Hotspot Volcano Group","elevation":null,"lat":-37.83,"lon":77.52,"status":"uncertain","erupting":false},{"id":"234002","name":"St. Paul","country":"France","type":"Stratovolcano","evidence":"Uncertain","last_eruption":"Unknown","region":"Somalian-Antarctic Volcanic Regions","subregion":"Amsterdam-St. Paul Hotspot Volcano Group","elevation":null,"lat":-38.72,"lon":77.53,"status":"uncertain","erupting":false},{"id":"234011","name":"McDonald Islands","country":"Australia","type":"Complex","evidence":"Uncertain","last_eruption":"Unknown","region":"Somalian-Antarctic Volcanic Regions","subregion":"Kerguelen Hotspot Volcano Group","elevation":null,"lat":-53.0394,"lon":72.595,"status":"uncertain","erupting":false},{"id":"234010","name":"Heard","country":"Australia","type":"Stratovolcano","evidence":"Uncertain","last_eruption":"Unknown","region":"Somalian-Antarctic Volcanic Regions","subregion":"Kerguelen Hotspot Volcano Group","elevation":null,"lat":-53.106,"lon":73.513,"status":"uncertain","erupting":false},{"id":"234020","name":"Kerguelen Islands","country":"France","type":"Stratovolcano(es)","evidence":"Uncertain","last_eruption":"Unknown","region":"Somalian-Antarctic Volcanic Regions","subregion":"Kerguelen Hotspot Volcano Group","elevation":null,"lat":-49.58,"lon":69.5,"status":"uncertain","erupting":false},{"id":"234030","name":"Est, Ile de l'","country":"France","type":"Stratovolcano","evidence":"Uncertain","last_eruption":"Unknown","region":"Somalian-Antarctic Volcanic Regions","subregion":"Crozet Hotspot Volcano Group","elevation":null,"lat":-46.43,"lon":52.2,"status":"uncertain","erupting":false},{"id":"234040","name":"Possession, Ile de la","country":"France","type":"Stratovolcano","evidence":"Uncertain","last_eruption":"Unknown","region":"Somalian-Antarctic Volcanic Regions","subregion":"Crozet Hotspot Volcano Group","elevation":null,"lat":-46.42,"lon":51.75,"status":"uncertain","erupting":false},{"id":"234050","name":"Cochons, Ile aux","country":"France","type":"Stratovolcano","evidence":"Uncertain","last_eruption":"Unknown","region":"Somalian-Antarctic Volcanic Regions","subregion":"Crozet Hotspot Volcano Group","elevation":null,"lat":-46.1,"lon":50.23,"status":"uncertain","erupting":false},{"id":"234060","name":"Prince Edward Island","country":"South Africa","type":"Shield","evidence":"Uncertain","last_eruption":"Unknown","region":"Somalian-Antarctic Volcanic Regions","subregion":"Marion Hotspot Volcano Group","elevation":null,"lat":-46.63,"lon":37.95,"status":"uncertain","erupting":false},{"id":"234070","name":"Marion Island","country":"South Africa","type":"Shield(s)","evidence":"Uncertain","last_eruption":"Unknown","region":"Somalian-Antarctic Volcanic Regions","subregion":"Marion Hotspot Volcano Group","elevation":null,"lat":-46.9,"lon":37.75,"status":"uncertain","erupting":false},{"id":"241021","name":"Tuhua/Mayor Island","country":"New Zealand","type":"Shield","evidence":"Uncertain","last_eruption":"Unknown","region":"Tonga-Kermadec Volcanic Regions","subregion":"Taupo Volcanic Arc","elevation":null,"lat":-37.28,"lon":176.25,"status":"uncertain","erupting":false},{"id":"241020","name":"Auckland Volcanic Field","country":"New Zealand","type":"Volcanic field","evidence":"Uncertain","last_eruption":"Unknown","region":"Tonga-Kermadec Volcanic Regions","subregion":"Western North Island Volcanic Province","elevation":null,"lat":-36.89,"lon":174.81,"status":"uncertain","erupting":false},{"id":"241030","name":"Taranaki","country":"New Zealand","type":"Stratovolcano","evidence":"Uncertain","last_eruption":"Unknown","region":"Tonga-Kermadec Volcanic Regions","subregion":"Western North Island Volcanic Province","elevation":null,"lat":-39.3,"lon":174.07,"status":"uncertain","erupting":false},{"id":"241040","name":"Whakaari/White Island","country":"New Zealand","type":"Stratovolcano(es)","evidence":"Uncertain","last_eruption":"Unknown","region":"Tonga-Kermadec Volcanic Regions","subregion":"Taupo Volcanic Arc","elevation":null,"lat":-37.52,"lon":177.18,"status":"uncertain","erupting":false},{"id":"241050","name":"Okataina","country":"New Zealand","type":"Lava dome(s)","evidence":"Uncertain","last_eruption":"Unknown","region":"Tonga-Kermadec Volcanic Regions","subregion":"Taupo Volcanic Arc","elevation":null,"lat":-38.1569,"lon":176.5069,"status":"uncertain","erupting":false},{"id":"241070","name":"Taupo","country":"New Zealand","type":"Caldera","evidence":"Uncertain","last_eruption":"Unknown","region":"Tonga-Kermadec Volcanic Regions","subregion":"Taupo Volcanic Arc","elevation":null,"lat":-38.7811,"lon":175.893,"status":"uncertain","erupting":false},{"id":"241080","name":"Tongariro","country":"New Zealand","type":"Stratovolcano(es)","evidence":"Uncertain","last_eruption":"Unknown","region":"Tonga-Kermadec Volcanic Regions","subregion":"Taupo Volcanic Arc","elevation":null,"lat":-39.157,"lon":175.632,"status":"uncertain","erupting":false},{"id":"241101","name":"Clark","country":"New Zealand","type":"Stratovolcano","evidence":"Uncertain","last_eruption":"Unknown","region":"Tonga-Kermadec Volcanic Regions","subregion":"Southern Kermadec Volcanic Arc","elevation":null,"lat":-36.446,"lon":177.839,"status":"uncertain","erupting":false},{"id":"241102","name":"Tangaroa","country":"New Zealand","type":"Stratovolcano","evidence":"Uncertain","last_eruption":"Unknown","region":"Tonga-Kermadec Volcanic Regions","subregion":"Southern Kermadec Volcanic Arc","elevation":null,"lat":-36.321,"lon":178.028,"status":"uncertain","erupting":false},{"id":"241100","name":"Ruapehu","country":"New Zealand","type":"Stratovolcano","evidence":"Uncertain","last_eruption":"Unknown","region":"Tonga-Kermadec Volcanic Regions","subregion":"Taupo Volcanic Arc","elevation":null,"lat":-39.28,"lon":175.57,"status":"uncertain","erupting":false},{"id":"241110","name":"Rumble V","country":"New Zealand","type":"Stratovolcano","evidence":"Uncertain","last_eruption":"Unknown","region":"Tonga-Kermadec Volcanic Regions","subregion":"Southern Kermadec Volcanic Arc","elevation":null,"lat":-36.142,"lon":178.196,"status":"uncertain","erupting":false},{"id":"241120","name":"Rumble IV","country":"New Zealand","type":"Stratovolcano","evidence":"Uncertain","last_eruption":"Unknown","region":"Tonga-Kermadec Volcanic Regions","subregion":"Southern Kermadec Volcanic Arc","elevation":null,"lat":-36.13,"lon":178.05,"status":"uncertain","erupting":false},{"id":"241130","name":"Rumble III","country":"New Zealand","type":"Stratovolcano","evidence":"Uncertain","last_eruption":"Unknown","region":"Tonga-Kermadec Volcanic Regions","subregion":"Southern Kermadec Volcanic Arc","elevation":null,"lat":-35.745,"lon":178.478,"status":"uncertain","erupting":false},{"id":"241131","name":"Rumble II West","country":"New Zealand","type":"Stratovolcano","evidence":"Uncertain","last_eruption":"Unknown","region":"Tonga-Kermadec Volcanic Regions","subregion":"Southern Kermadec Volcanic Arc","elevation":null,"lat":-35.353,"lon":178.527,"status":"uncertain","erupting":false},{"id":"241140","name":"Healy","country":"New Zealand","type":"Stratovolcano","evidence":"Uncertain","last_eruption":"Unknown","region":"Tonga-Kermadec Volcanic Regions","subregion":"Southern Kermadec Volcanic Arc","elevation":null,"lat":-35.004,"lon":178.973,"status":"uncertain","erupting":false},{"id":"241150","name":"Brothers","country":"New Zealand","type":"Caldera","evidence":"Uncertain","last_eruption":"Unknown","region":"Tonga-Kermadec Volcanic Regions","subregion":"Southern Kermadec Volcanic Arc","elevation":null,"lat":-34.875,"lon":179.0667,"status":"uncertain","erupting":false},{"id":"242001","name":"Wright","country":"New Zealand","type":"Stratovolcano(es)","evidence":"Uncertain","last_eruption":"Unknown","region":"Tonga-Kermadec Volcanic Regions","subregion":"Middle Kermadec Volcanic Arc","elevation":null,"lat":-31.85,"lon":-179.18,"status":"uncertain","erupting":false},{"id":"242010","name":"Curtis Island","country":"New Zealand","type":"Stratovolcano","evidence":"Uncertain","last_eruption":"Unknown","region":"Tonga-Kermadec Volcanic Regions","subregion":"Middle Kermadec Volcanic Arc","elevation":null,"lat":-30.543,"lon":-178.556,"status":"uncertain","erupting":false},{"id":"242021","name":"Macauley","country":"New Zealand","type":"Caldera","evidence":"Uncertain","last_eruption":"Unknown","region":"Tonga-Kermadec Volcanic Regions","subregion":"Middle Kermadec Volcanic Arc","elevation":null,"lat":-30.21,"lon":-178.475,"status":"uncertain","erupting":false},{"id":"242022","name":"Giggenbach","country":"New Zealand","type":"Stratovolcano","evidence":"Uncertain","last_eruption":"Unknown","region":"Tonga-Kermadec Volcanic Regions","subregion":"Middle Kermadec Volcanic Arc","elevation":null,"lat":-30.036,"lon":-178.712,"status":"uncertain","erupting":false},{"id":"242030","name":"Raoul Island","country":"New Zealand","type":"Stratovolcano","evidence":"Uncertain","last_eruption":"Unknown","region":"Tonga-Kermadec Volcanic Regions","subregion":"Northern Kermadec Volcanic Arc","elevation":null,"lat":-29.27,"lon":-177.92,"status":"uncertain","erupting":false},{"id":"242050","name":"Monowai","country":"New Zealand","type":"Stratovolcano","evidence":"Uncertain","last_eruption":"Unknown","region":"Tonga-Kermadec Volcanic Regions","subregion":"Northern Kermadec Volcanic Arc","elevation":null,"lat":-25.887,"lon":-177.188,"status":"uncertain","erupting":false},{"id":"243001","name":"Kermadec Arc at 24.8°S","country":"Tonga","type":"Stratovolcano","evidence":"Uncertain","last_eruption":"Unknown","region":"Tonga-Kermadec Volcanic Regions","subregion":"Northern Kermadec Volcanic Arc","elevation":null,"lat":-24.8,"lon":-177.02,"status":"uncertain","erupting":false},{"id":"243011","name":"Tofua Arc at 21.1°S","country":"Tonga","type":"Stratovolcano","evidence":"Uncertain","last_eruption":"Unknown","region":"Tonga-Kermadec Volcanic Regions","subregion":"Tofua Volcanic Arc","elevation":null,"lat":-21.15,"lon":-175.75,"status":"uncertain","erupting":false},{"id":"243010","name":"Tofua Arc at 21.3°S","country":"Tonga","type":"Stratovolcano","evidence":"Uncertain","last_eruption":"Unknown","region":"Tonga-Kermadec Volcanic Regions","subregion":"Tofua Volcanic Arc","elevation":null,"lat":-21.338,"lon":-175.65,"status":"uncertain","erupting":false},{"id":"243030","name":"Tofua Arc at 20.9°S","country":"Tonga","type":"Stratovolcano","evidence":"Uncertain","last_eruption":"Unknown","region":"Tonga-Kermadec Volcanic Regions","subregion":"Tofua Volcanic Arc","elevation":null,"lat":-20.852,"lon":-175.55,"status":"uncertain","erupting":false},{"id":"243040","name":"Hunga Tonga-Hunga Ha'apai","country":"Tonga","type":"Caldera","evidence":"Uncertain","last_eruption":"Unknown","region":"Tonga-Kermadec Volcanic Regions","subregion":"Tofua Volcanic Arc","elevation":null,"lat":-20.5532,"lon":-175.3841,"status":"uncertain","erupting":false},{"id":"243050","name":"Fonuafo'ou","country":"Tonga","type":"Stratovolcano","evidence":"Uncertain","last_eruption":"Unknown","region":"Tonga-Kermadec Volcanic Regions","subregion":"Tofua Volcanic Arc","elevation":null,"lat":-20.32,"lon":-175.42,"status":"uncertain","erupting":false},{"id":"243061","name":"Kao","country":"Tonga","type":"Stratovolcano","evidence":"Uncertain","last_eruption":"Unknown","region":"Tonga-Kermadec Volcanic Regions","subregion":"Tofua Volcanic Arc","elevation":null,"lat":-19.668,"lon":-175.016,"status":"uncertain","erupting":false},{"id":"243060","name":"Tofua","country":"Tonga","type":"Caldera","evidence":"Uncertain","last_eruption":"Unknown","region":"Tonga-Kermadec Volcanic Regions","subregion":"Tofua Volcanic Arc","elevation":null,"lat":-19.75,"lon":-175.07,"status":"uncertain","erupting":false},{"id":"243070","name":"Lateiki","country":"Tonga","type":"Stratovolcano","evidence":"Uncertain","last_eruption":"Unknown","region":"Tonga-Kermadec Volcanic Regions","subregion":"Tofua Volcanic Arc","elevation":null,"lat":-19.18,"lon":-174.87,"status":"uncertain","erupting":false},{"id":"243080","name":"Home Reef","country":"Tonga","type":"Stratovolcano","evidence":"Uncertain","last_eruption":"Unknown","region":"Tonga-Kermadec Volcanic Regions","subregion":"Tofua Volcanic Arc","elevation":null,"lat":-18.992,"lon":-174.775,"status":"uncertain","erupting":false},{"id":"243091","name":"Tofua Arc at 18.3°S","country":"Tonga","type":"Stratovolcano","evidence":"Uncertain","last_eruption":"Unknown","region":"Tonga-Kermadec Volcanic Regions","subregion":"Tofua Volcanic Arc","elevation":null,"lat":-18.325,"lon":-174.365,"status":"uncertain","erupting":false},{"id":"243090","name":"Late","country":"Tonga","type":"Stratovolcano","evidence":"Uncertain","last_eruption":"Unknown","region":"Tonga-Kermadec Volcanic Regions","subregion":"Tofua Volcanic Arc","elevation":null,"lat":-18.806,"lon":-174.65,"status":"uncertain","erupting":false},{"id":"243101","name":"Tafahi","country":"Tonga","type":"Stratovolcano","evidence":"Uncertain","last_eruption":"Unknown","region":"Tonga-Kermadec Volcanic Regions","subregion":"Tofua Volcanic Arc","elevation":null,"lat":-15.854,"lon":-173.747,"status":"uncertain","erupting":false},{"id":"243102","name":"Curacoa","country":"Tonga","type":"Complex","evidence":"Uncertain","last_eruption":"Unknown","region":"Tonga-Kermadec Volcanic Regions","subregion":"Tofua Volcanic Arc","elevation":null,"lat":-15.62,"lon":-173.67,"status":"uncertain","erupting":false},{"id":"243100","name":"Fonualei","country":"Tonga","type":"Stratovolcano","evidence":"Uncertain","last_eruption":"Unknown","region":"Tonga-Kermadec Volcanic Regions","subregion":"Tofua Volcanic Arc","elevation":null,"lat":-18.023,"lon":-174.317,"status":"uncertain","erupting":false},{"id":"243110","name":"Niuafo'ou","country":"Tonga","type":"Shield","evidence":"Uncertain","last_eruption":"Unknown","region":"Tonga-Kermadec Volcanic Regions","subregion":"Northeast Lau Basin Volcano Group","elevation":null,"lat":-15.6,"lon":-175.63,"status":"uncertain","erupting":false},{"id":"243120","name":"Tafu-Maka","country":"Tonga","type":"Fissure vent","evidence":"Uncertain","last_eruption":"Unknown","region":"Tonga-Kermadec Volcanic Regions","subregion":"Northeast Lau Basin Volcano Group","elevation":null,"lat":-15.37,"lon":-174.23,"status":"uncertain","erupting":false},{"id":"243130","name":"West Mata","country":"Tonga","type":"Fissure vent(s)","evidence":"Uncertain","last_eruption":"Unknown","region":"Tonga-Kermadec Volcanic Regions","subregion":"Northeast Lau Basin Volcano Group","elevation":null,"lat":-15.1,"lon":-173.75,"status":"uncertain","erupting":false},{"id":"244000","name":"Vailulu'u","country":"United States","type":"Shield","evidence":"Uncertain","last_eruption":"Unknown","region":"Southern Pacific Volcanic Regions","subregion":"Samoan Hotspot Volcano Group","elevation":null,"lat":-14.215,"lon":-169.058,"status":"uncertain","erupting":false},{"id":"244001","name":"Ta'u","country":"United States","type":"Shield","evidence":"Uncertain","last_eruption":"Unknown","region":"Southern Pacific Volcanic Regions","subregion":"Samoan Hotspot Volcano Group","elevation":null,"lat":-14.23,"lon":-169.454,"status":"uncertain","erupting":false},{"id":"244010","name":"Ofu-Olosega","country":"United States","type":"Shield(s)","evidence":"Uncertain","last_eruption":"Unknown","region":"Southern Pacific Volcanic Regions","subregion":"Samoan Hotspot Volcano Group","elevation":null,"lat":-14.175,"lon":-169.618,"status":"uncertain","erupting":false},{"id":"244020","name":"Tutuila","country":"United States","type":"Tuff cone(s)","evidence":"Uncertain","last_eruption":"Unknown","region":"Southern Pacific Volcanic Regions","subregion":"Samoan Hotspot Volcano Group","elevation":null,"lat":-14.2903,"lon":-170.7019,"status":"uncertain","erupting":false},{"id":"244030","name":"Upolu","country":"Samoa","type":"Shield","evidence":"Uncertain","last_eruption":"Unknown","region":"Southern Pacific Volcanic Regions","subregion":"Samoan Hotspot Volcano Group","elevation":null,"lat":-13.935,"lon":-171.72,"status":"uncertain","erupting":false},{"id":"244040","name":"Savaii","country":"Samoa","type":"Shield","evidence":"Uncertain","last_eruption":"Unknown","region":"Southern Pacific Volcanic Regions","subregion":"Samoan Hotspot Volcano Group","elevation":null,"lat":-13.612,"lon":-172.525,"status":"uncertain","erupting":false},{"id":"245010","name":"Taveuni","country":"Fiji","type":"Shield","evidence":"Uncertain","last_eruption":"Unknown","region":"Southwestern Pacific Volcanic Regions","subregion":"Fiji Volcanic Arc","elevation":null,"lat":-16.8412,"lon":-179.9644,"status":"uncertain","erupting":false},{"id":"245030","name":"Nabukelevu","country":"Fiji","type":"Lava dome(s)","evidence":"Uncertain","last_eruption":"Unknown","region":"Southwestern Pacific Volcanic Regions","subregion":"Fiji Volcanic Arc","elevation":null,"lat":-19.1181,"lon":177.9815,"status":"uncertain","erupting":false},{"id":"250010","name":"St. Andrew Strait","country":"Papua New Guinea","type":"Complex","evidence":"Uncertain","last_eruption":"Unknown","region":"Southwestern Pacific Volcanic Regions","subregion":"Bismarck Sea Volcanic Province","elevation":null,"lat":-2.38,"lon":147.35,"status":"uncertain","erupting":false},{"id":"250030","name":"Central Bismarck Sea","country":"Papua New Guinea","type":"Fissure vent","evidence":"Uncertain","last_eruption":"Unknown","region":"Southwestern Pacific Volcanic Regions","subregion":"Bismarck Sea Volcanic Province","elevation":null,"lat":-3.03,"lon":147.78,"status":"uncertain","erupting":false},{"id":"251001","name":"Blup Blup","country":"Papua New Guinea","type":"Stratovolcano","evidence":"Uncertain","last_eruption":"Unknown","region":"Southwestern Pacific Volcanic Regions","subregion":"Bismarck Volcanic Arc","elevation":null,"lat":-3.507,"lon":144.605,"status":"uncertain","erupting":false},{"id":"251002","name":"Kadovar","country":"Papua New Guinea","type":"Stratovolcano","evidence":"Uncertain","last_eruption":"Unknown","region":"Southwestern Pacific Volcanic Regions","subregion":"Bismarck Volcanic Arc","elevation":null,"lat":-3.608,"lon":144.588,"status":"uncertain","erupting":false},{"id":"251010","name":"Bam","country":"Papua New Guinea","type":"Stratovolcano","evidence":"Uncertain","last_eruption":"Unknown","region":"Southwestern Pacific Volcanic Regions","subregion":"Bismarck Volcanic Arc","elevation":null,"lat":-3.613,"lon":144.818,"status":"uncertain","erupting":false},{"id":"251020","name":"Manam","country":"Papua New Guinea","type":"Stratovolcano","evidence":"Uncertain","last_eruption":"Unknown","region":"Southwestern Pacific Volcanic Regions","subregion":"Bismarck Volcanic Arc","elevation":null,"lat":-4.08,"lon":145.037,"status":"uncertain","erupting":false},{"id":"251030","name":"Karkar","country":"Papua New Guinea","type":"Stratovolcano","evidence":"Uncertain","last_eruption":"Unknown","region":"Southwestern Pacific Volcanic Regions","subregion":"Bismarck Volcanic Arc","elevation":null,"lat":-4.647,"lon":145.976,"status":"uncertain","erupting":false},{"id":"251041","name":"Hankow Reef","country":"Papua New Guinea","type":"Stratovolcano","evidence":"Uncertain","last_eruption":"Unknown","region":"Southwestern Pacific Volcanic Regions","subregion":"Bismarck Volcanic Arc","elevation":null,"lat":-4.883,"lon":146.717,"status":"uncertain","erupting":false},{"id":"251050","name":"Long Island","country":"Papua New Guinea","type":"Complex","evidence":"Uncertain","last_eruption":"Unknown","region":"Southwestern Pacific Volcanic Regions","subregion":"Bismarck Volcanic Arc","elevation":null,"lat":-5.3144,"lon":147.105,"status":"uncertain","erupting":false},{"id":"251060","name":"Umboi","country":"Papua New Guinea","type":"Complex","evidence":"Uncertain","last_eruption":"Unknown","region":"Southwestern Pacific Volcanic Regions","subregion":"Bismarck Volcanic Arc","elevation":null,"lat":-5.592,"lon":147.892,"status":"uncertain","erupting":false},{"id":"251070","name":"Ritter Island","country":"Papua New Guinea","type":"Stratovolcano","evidence":"Uncertain","last_eruption":"Unknown","region":"Southwestern Pacific Volcanic Regions","subregion":"Bismarck Volcanic Arc","elevation":null,"lat":-5.519,"lon":148.115,"status":"uncertain","erupting":false},{"id":"251080","name":"Sakar","country":"Papua New Guinea","type":"Stratovolcano","evidence":"Uncertain","last_eruption":"Unknown","region":"Southwestern Pacific Volcanic Regions","subregion":"Bismarck Volcanic Arc","elevation":null,"lat":-5.4098,"lon":148.0836,"status":"uncertain","erupting":false},{"id":"252010","name":"Langila","country":"Papua New Guinea","type":"Complex","evidence":"Uncertain","last_eruption":"Unknown","region":"Southwestern Pacific Volcanic Regions","subregion":"Bismarck Volcanic Arc","elevation":null,"lat":-5.525,"lon":148.42,"status":"uncertain","erupting":false},{"id":"252040","name":"Dakataua","country":"Papua New Guinea","type":"Caldera","evidence":"Uncertain","last_eruption":"Unknown","region":"Southwestern Pacific Volcanic Regions","subregion":"Bismarck Volcanic Arc","elevation":null,"lat":-5.0455,"lon":150.0996,"status":"uncertain","erupting":false},{"id":"252050","name":"Bola","country":"Papua New Guinea","type":"Stratovolcano","evidence":"Uncertain","last_eruption":"Unknown","region":"Southwestern Pacific Volcanic Regions","subregion":"Bismarck Volcanic Arc","elevation":null,"lat":-5.141,"lon":150.038,"status":"uncertain","erupting":false},{"id":"252060","name":"Garua Harbour","country":"Papua New Guinea","type":"Volcanic field","evidence":"Uncertain","last_eruption":"Unknown","region":"Southwestern Pacific Volcanic Regions","subregion":"Bismarck Volcanic Arc","elevation":null,"lat":-5.3,"lon":150.07,"status":"uncertain","erupting":false},{"id":"252071","name":"Lolo","country":"Papua New Guinea","type":"Stratovolcano","evidence":"Uncertain","last_eruption":"Unknown","region":"Southwestern Pacific Volcanic Regions","subregion":"Bismarck Volcanic Arc","elevation":null,"lat":-5.466,"lon":150.509,"status":"uncertain","erupting":false},{"id":"252070","name":"Krummel-Garbuna-Welcker","country":"Papua New Guinea","type":"Stratovolcano(es)","evidence":"Uncertain","last_eruption":"Unknown","region":"Southwestern Pacific Volcanic Regions","subregion":"Bismarck Volcanic Arc","elevation":null,"lat":-5.416,"lon":150.027,"status":"uncertain","erupting":false},{"id":"252080","name":"Witori","country":"Papua New Guinea","type":"Caldera","evidence":"Uncertain","last_eruption":"Unknown","region":"Southwestern Pacific Volcanic Regions","subregion":"Bismarck Volcanic Arc","elevation":null,"lat":-5.5745,"lon":150.5161,"status":"uncertain","erupting":false},{"id":"252090","name":"Sulu Range","country":"Papua New Guinea","type":"Stratovolcano(es)","evidence":"Uncertain","last_eruption":"Unknown","region":"Southwestern Pacific Volcanic Regions","subregion":"Bismarck Volcanic Arc","elevation":null,"lat":-5.5,"lon":150.942,"status":"uncertain","erupting":false},{"id":"252100","name":"Hargy","country":"Papua New Guinea","type":"Stratovolcano","evidence":"Uncertain","last_eruption":"Unknown","region":"Southwestern Pacific Volcanic Regions","subregion":"Bismarck Volcanic Arc","elevation":null,"lat":-5.33,"lon":151.1,"status":"uncertain","erupting":false},{"id":"252110","name":"Bamus","country":"Papua New Guinea","type":"Stratovolcano","evidence":"Uncertain","last_eruption":"Unknown","region":"Southwestern Pacific Volcanic Regions","subregion":"Bismarck Volcanic Arc","elevation":null,"lat":-5.2,"lon":151.23,"status":"uncertain","erupting":false},{"id":"252120","name":"Ulawun","country":"Papua New Guinea","type":"Stratovolcano","evidence":"Uncertain","last_eruption":"Unknown","region":"Southwestern Pacific Volcanic Regions","subregion":"Bismarck Volcanic Arc","elevation":null,"lat":-5.05,"lon":151.33,"status":"uncertain","erupting":false},{"id":"252130","name":"Lolobau","country":"Papua New Guinea","type":"Caldera","evidence":"Uncertain","last_eruption":"Unknown","region":"Southwestern Pacific Volcanic Regions","subregion":"Bismarck Volcanic Arc","elevation":null,"lat":-4.9156,"lon":151.1617,"status":"uncertain","erupting":false},{"id":"252140","name":"Rabaul","country":"Papua New Guinea","type":"Caldera","evidence":"Uncertain","last_eruption":"Unknown","region":"Southwestern Pacific Volcanic Regions","subregion":"Bismarck Volcanic Arc","elevation":null,"lat":-4.2459,"lon":152.1937,"status":"uncertain","erupting":false},{"id":"252150","name":"Tavui","country":"Papua New Guinea","type":"Caldera","evidence":"Uncertain","last_eruption":"Unknown","region":"Southwestern Pacific Volcanic Regions","subregion":"Bismarck Volcanic Arc","elevation":null,"lat":-4.1089,"lon":152.2134,"status":"uncertain","erupting":false},{"id":"253011","name":"Hydrographers Range","country":"Papua New Guinea","type":"Stratovolcano","evidence":"Uncertain","last_eruption":"Unknown","region":"Southwestern Pacific Volcanic Regions","subregion":"Trobriand Volcanic Province","elevation":null,"lat":-9.0,"lon":148.37,"status":"uncertain","erupting":false},{"id":"253010","name":"Lamington","country":"Papua New Guinea","type":"Stratovolcano","evidence":"Uncertain","last_eruption":"Unknown","region":"Southwestern Pacific Volcanic Regions","subregion":"Trobriand Volcanic Province","elevation":null,"lat":-8.95,"lon":148.15,"status":"uncertain","erupting":false},{"id":"253021","name":"Managlase Plateau","country":"Papua New Guinea","type":"Volcanic field","evidence":"Uncertain","last_eruption":"Unknown","region":"Southwestern Pacific Volcanic Regions","subregion":"Trobriand Volcanic Province","elevation":null,"lat":-9.08,"lon":148.33,"status":"uncertain","erupting":false},{"id":"253030","name":"Victory","country":"Papua New Guinea","type":"Stratovolcano","evidence":"Uncertain","last_eruption":"Unknown","region":"Southwestern Pacific Volcanic Regions","subregion":"Trobriand Volcanic Province","elevation":null,"lat":-9.2003,"lon":149.072,"status":"uncertain","erupting":false},{"id":"253041","name":"Goodenough","country":"Papua New Guinea","type":"Volcanic field","evidence":"Uncertain","last_eruption":"Unknown","region":"Southwestern Pacific Volcanic Regions","subregion":"Trobriand Volcanic Province","elevation":null,"lat":-9.358,"lon":150.246,"status":"uncertain","erupting":false},{"id":"253040","name":"Sessagara Hills","country":"Papua New Guinea","type":"Volcanic field","evidence":"Uncertain","last_eruption":"Unknown","region":"Southwestern Pacific Volcanic Regions","subregion":"Trobriand Volcanic Province","elevation":null,"lat":-9.5542,"lon":149.1278,"status":"uncertain","erupting":false},{"id":"253050","name":"Iamalele","country":"Papua New Guinea","type":"Lava dome(s)","evidence":"Uncertain","last_eruption":"Unknown","region":"Southwestern Pacific Volcanic Regions","subregion":"Trobriand Volcanic Province","elevation":null,"lat":-9.5056,"lon":150.5239,"status":"uncertain","erupting":false},{"id":"253060","name":"Dawson Strait Group","country":"Papua New Guinea","type":"Volcanic field","evidence":"Uncertain","last_eruption":"Unknown","region":"Southwestern Pacific Volcanic Regions","subregion":"Trobriand Volcanic Province","elevation":null,"lat":-9.62,"lon":150.88,"status":"uncertain","erupting":false},{"id":"255011","name":"Billy Mitchell","country":"Papua New Guinea","type":"Caldera","evidence":"Uncertain","last_eruption":"Unknown","region":"Southwestern Pacific Volcanic Regions","subregion":"Bougainville Volcanic Arc","elevation":null,"lat":-6.0898,"lon":155.2254,"status":"uncertain","erupting":false},{"id":"255010","name":"Balbi","country":"Papua New Guinea","type":"Stratovolcano","evidence":"Uncertain","last_eruption":"Unknown","region":"Southwestern Pacific Volcanic Regions","subregion":"Bougainville Volcanic Arc","elevation":null,"lat":-5.9156,"lon":155.0008,"status":"uncertain","erupting":false},{"id":"255021","name":"Takuan Group","country":"Papua New Guinea","type":"Compound","evidence":"Uncertain","last_eruption":"Unknown","region":"Southwestern Pacific Volcanic Regions","subregion":"Bougainville Volcanic Arc","elevation":null,"lat":-6.442,"lon":155.608,"status":"uncertain","erupting":false},{"id":"255020","name":"Bagana","country":"Papua New Guinea","type":"Lava cone","evidence":"Uncertain","last_eruption":"Unknown","region":"Southwestern Pacific Volcanic Regions","subregion":"Bougainville Volcanic Arc","elevation":null,"lat":-6.137,"lon":155.196,"status":"uncertain","erupting":false},{"id":"255030","name":"Loloru","country":"Papua New Guinea","type":"Compound","evidence":"Uncertain","last_eruption":"Unknown","region":"Southwestern Pacific Volcanic Regions","subregion":"Bougainville Volcanic Arc","elevation":null,"lat":-6.52,"lon":155.62,"status":"uncertain","erupting":false},{"id":"255052","name":"Kana Keoki","country":"Solomon Islands","type":"Stratovolcano","evidence":"Uncertain","last_eruption":"Unknown","region":"Southwestern Pacific Volcanic Regions","subregion":"Solomon Volcanic Province","elevation":null,"lat":-8.75,"lon":157.03,"status":"uncertain","erupting":false},{"id":"255053","name":"Coleman Seamount","country":"Solomon Islands","type":"Stratovolcano","evidence":"Uncertain","last_eruption":"Unknown","region":"Southwestern Pacific Volcanic Regions","subregion":"Solomon Volcanic Province","elevation":null,"lat":-8.841,"lon":157.16,"status":"uncertain","erupting":false},{"id":"255050","name":"Simbo","country":"Solomon Islands","type":"Stratovolcano(es)","evidence":"Uncertain","last_eruption":"Unknown","region":"Southwestern Pacific Volcanic Regions","subregion":"Solomon Volcanic Province","elevation":null,"lat":-8.292,"lon":156.52,"status":"uncertain","erupting":false},{"id":"255061","name":"New Georgia at 8.9°S","country":"Solomon Islands","type":"Stratovolcano","evidence":"Uncertain","last_eruption":"Unknown","region":"Southwestern Pacific Volcanic Regions","subregion":"Solomon Volcanic Province","elevation":null,"lat":-8.92,"lon":158.03,"status":"uncertain","erupting":false},{"id":"255060","name":"Kavachi","country":"Solomon Islands","type":"Stratovolcano","evidence":"Uncertain","last_eruption":"Unknown","region":"Southwestern Pacific Volcanic Regions","subregion":"Solomon Volcanic Province","elevation":null,"lat":-8.991,"lon":157.979,"status":"uncertain","erupting":false},{"id":"255070","name":"Savo","country":"Solomon Islands","type":"Stratovolcano","evidence":"Uncertain","last_eruption":"Unknown","region":"Southwestern Pacific Volcanic Regions","subregion":"Solomon Volcanic Province","elevation":null,"lat":-9.1324,"lon":159.8119,"status":"uncertain","erupting":false},{"id":"256010","name":"Tinakula","country":"Solomon Islands","type":"Stratovolcano","evidence":"Uncertain","last_eruption":"Unknown","region":"Southwestern Pacific Volcanic Regions","subregion":"Vanuatu Volcanic Arc","elevation":null,"lat":-10.386,"lon":165.804,"status":"uncertain","erupting":false},{"id":"257001","name":"Motlav","country":"Vanuatu","type":"Stratovolcano","evidence":"Uncertain","last_eruption":"Unknown","region":"Southwestern Pacific Volcanic Regions","subregion":"Vanuatu Volcanic Arc","elevation":null,"lat":-13.67,"lon":167.67,"status":"uncertain","erupting":false},{"id":"257010","name":"Suretamatai","country":"Vanuatu","type":"Complex","evidence":"Uncertain","last_eruption":"Unknown","region":"Southwestern Pacific Volcanic Regions","subregion":"Vanuatu Volcanic Arc","elevation":null,"lat":-13.8,"lon":167.47,"status":"uncertain","erupting":false},{"id":"257020","name":"Gaua","country":"Vanuatu","type":"Stratovolcano","evidence":"Uncertain","last_eruption":"Unknown","region":"Southwestern Pacific Volcanic Regions","subregion":"Vanuatu Volcanic Arc","elevation":null,"lat":-14.281,"lon":167.514,"status":"uncertain","erupting":false},{"id":"257030","name":"Ambae","country":"Vanuatu","type":"Shield","evidence":"Uncertain","last_eruption":"Unknown","region":"Southwestern Pacific Volcanic Regions","subregion":"Vanuatu Volcanic Arc","elevation":null,"lat":-15.389,"lon":167.835,"status":"uncertain","erupting":false},{"id":"257040","name":"Ambrym","country":"Vanuatu","type":"Shield(pyroclastic)","evidence":"Uncertain","last_eruption":"Unknown","region":"Southwestern Pacific Volcanic Regions","subregion":"Vanuatu Volcanic Arc","elevation":null,"lat":-16.25,"lon":168.12,"status":"uncertain","erupting":false},{"id":"257050","name":"Lopevi","country":"Vanuatu","type":"Stratovolcano","evidence":"Uncertain","last_eruption":"Unknown","region":"Southwestern Pacific Volcanic Regions","subregion":"Vanuatu Volcanic Arc","elevation":null,"lat":-16.507,"lon":168.346,"status":"uncertain","erupting":false},{"id":"257060","name":"East Epi","country":"Vanuatu","type":"Stratovolcano(es)","evidence":"Uncertain","last_eruption":"Unknown","region":"Southwestern Pacific Volcanic Regions","subregion":"Vanuatu Volcanic Arc","elevation":null,"lat":-16.6797,"lon":168.3893,"status":"uncertain","erupting":false},{"id":"257070","name":"Kuwae","country":"Vanuatu","type":"Caldera","evidence":"Uncertain","last_eruption":"Unknown","region":"Southwestern Pacific Volcanic Regions","subregion":"Vanuatu Volcanic Arc","elevation":null,"lat":-16.8304,"lon":168.5227,"status":"uncertain","erupting":false},{"id":"257081","name":"Nguna-Emau","country":"Vanuatu","type":"Stratovolcano(es)","evidence":"Uncertain","last_eruption":"Unknown","region":"Southwestern Pacific Volcanic Regions","subregion":"Vanuatu Volcanic Arc","elevation":null,"lat":-17.4522,"lon":168.353,"status":"uncertain","erupting":false},{"id":"257090","name":"Traitor's Head","country":"Vanuatu","type":"Stratovolcano","evidence":"Uncertain","last_eruption":"Unknown","region":"Southwestern Pacific Volcanic Regions","subregion":"Vanuatu Volcanic Arc","elevation":null,"lat":-18.754,"lon":169.238,"status":"uncertain","erupting":false},{"id":"257100","name":"Yasur","country":"Vanuatu","type":"Stratovolcano","evidence":"Uncertain","last_eruption":"Unknown","region":"Southwestern Pacific Volcanic Regions","subregion":"Vanuatu Volcanic Arc","elevation":null,"lat":-19.532,"lon":169.447,"status":"uncertain","erupting":false},{"id":"258001","name":"Gemini-Oscostar","country":"Vanuatu","type":"Stratovolcano","evidence":"Uncertain","last_eruption":"Unknown","region":"Southwestern Pacific Volcanic Regions","subregion":"Vanuatu Volcanic Arc","elevation":null,"lat":-20.957,"lon":170.13,"status":"uncertain","erupting":false},{"id":"258010","name":"Matthew Island","country":"France - claimed by Vanuatu","type":"Stratovolcano","evidence":"Uncertain","last_eruption":"Unknown","region":"Southwestern Pacific Volcanic Regions","subregion":"Vanuatu Volcanic Arc","elevation":null,"lat":-22.33,"lon":171.32,"status":"uncertain","erupting":false},{"id":"258020","name":"Hunter Island","country":"France - claimed by Vanuatu","type":"Stratovolcano","evidence":"Uncertain","last_eruption":"Unknown","region":"Southwestern Pacific Volcanic Regions","subregion":"Vanuatu Volcanic Arc","elevation":null,"lat":-22.4,"lon":172.05,"status":"uncertain","erupting":false},{"id":"259010","name":"Newer Volcanics Province","country":"Australia","type":"Volcanic field","evidence":"Uncertain","last_eruption":"Unknown","region":"Eastern Australia Volcanic Regions","subregion":"Southeastern Australia Volcanic Province","elevation":null,"lat":-37.77,"lon":142.5,"status":"uncertain","erupting":false},{"id":"259804","name":"McBride Volcanic Province","country":"Australia","type":"Volcanic field","evidence":"Uncertain","last_eruption":"Unknown","region":"Eastern Australia Volcanic Regions","subregion":"Northeastern Australia Volcanic Province","elevation":null,"lat":-18.367,"lon":144.567,"status":"uncertain","erupting":false},{"id":"260010","name":"Barren Island","country":"India","type":"Stratovolcano","evidence":"Uncertain","last_eruption":"Unknown","region":"Sunda-Banda Volcanic Regions","subregion":"Andaman Volcanic Province","elevation":null,"lat":12.278,"lon":93.858,"status":"uncertain","erupting":false},{"id":"261030","name":"Peuet Sague","country":"Indonesia","type":"Complex","evidence":"Uncertain","last_eruption":"Unknown","region":"Sunda-Banda Volcanic Regions","subregion":"Sunda Volcanic Arc","elevation":null,"lat":4.903,"lon":96.289,"status":"uncertain","erupting":false},{"id":"261050","name":"Telong, Bur ni","country":"Indonesia","type":"Stratovolcano","evidence":"Uncertain","last_eruption":"Unknown","region":"Sunda-Banda Volcanic Regions","subregion":"Sunda Volcanic Arc","elevation":null,"lat":4.769,"lon":96.821,"status":"uncertain","erupting":false},{"id":"261070","name":"Singkut","country":"Indonesia","type":"Caldera(s)","evidence":"Uncertain","last_eruption":"Unknown","region":"Sunda-Banda Volcanic Regions","subregion":"Sunda Volcanic Arc","elevation":null,"lat":3.2379,"lon":98.5127,"status":"uncertain","erupting":false},{"id":"261080","name":"Sinabung","country":"Indonesia","type":"Stratovolcano","evidence":"Uncertain","last_eruption":"Unknown","region":"Sunda-Banda Volcanic Regions","subregion":"Sunda Volcanic Arc","elevation":null,"lat":3.17,"lon":98.392,"status":"uncertain","erupting":false},{"id":"261121","name":"Malintang","country":"Indonesia","type":"Stratovolcano","evidence":"Uncertain","last_eruption":"Unknown","region":"Sunda-Banda Volcanic Regions","subregion":"Sunda Volcanic Arc","elevation":null,"lat":0.4756,"lon":99.6628,"status":"uncertain","erupting":false},{"id":"261120","name":"Sorikmarapi","country":"Indonesia","type":"Stratovolcano","evidence":"Uncertain","last_eruption":"Unknown","region":"Sunda-Banda Volcanic Regions","subregion":"Sunda Volcanic Arc","elevation":null,"lat":0.6834,"lon":99.5409,"status":"uncertain","erupting":false},{"id":"261130","name":"Talakmau","country":"Indonesia","type":"Complex","evidence":"Uncertain","last_eruption":"Unknown","region":"Sunda-Banda Volcanic Regions","subregion":"Sunda Volcanic Arc","elevation":null,"lat":0.0787,"lon":99.984,"status":"uncertain","erupting":false},{"id":"261140","name":"Marapi","country":"Indonesia","type":"Complex","evidence":"Uncertain","last_eruption":"Unknown","region":"Sunda-Banda Volcanic Regions","subregion":"Sunda Volcanic Arc","elevation":null,"lat":-0.38,"lon":100.474,"status":"uncertain","erupting":false},{"id":"261150","name":"Tandikat-Singgalang","country":"Indonesia","type":"Stratovolcano(es)","evidence":"Uncertain","last_eruption":"Unknown","region":"Sunda-Banda Volcanic Regions","subregion":"Sunda Volcanic Arc","elevation":null,"lat":-0.4311,"lon":100.3192,"status":"uncertain","erupting":false},{"id":"261160","name":"Talang","country":"Indonesia","type":"Stratovolcano","evidence":"Uncertain","last_eruption":"Unknown","region":"Sunda-Banda Volcanic Regions","subregion":"Sunda Volcanic Arc","elevation":null,"lat":-0.979,"lon":100.681,"status":"uncertain","erupting":false},{"id":"261170","name":"Kerinci","country":"Indonesia","type":"Stratovolcano","evidence":"Uncertain","last_eruption":"Unknown","region":"Sunda-Banda Volcanic Regions","subregion":"Sunda Volcanic Arc","elevation":null,"lat":-1.697,"lon":101.264,"status":"uncertain","erupting":false},{"id":"261180","name":"Sumbing","country":"Indonesia","type":"Stratovolcano","evidence":"Uncertain","last_eruption":"Unknown","region":"Sunda-Banda Volcanic Regions","subregion":"Sunda Volcanic Arc","elevation":null,"lat":-2.414,"lon":101.728,"status":"uncertain","erupting":false},{"id":"261220","name":"Kaba","country":"Indonesia","type":"Stratovolcano","evidence":"Uncertain","last_eruption":"Unknown","region":"Sunda-Banda Volcanic Regions","subregion":"Sunda Volcanic Arc","elevation":null,"lat":-3.5156,"lon":102.6261,"status":"uncertain","erupting":false},{"id":"261231","name":"Patah","country":"Indonesia","type":"Stratovolcano?","evidence":"Uncertain","last_eruption":"Unknown","region":"Sunda-Banda Volcanic Regions","subregion":"Sunda Volcanic Arc","elevation":null,"lat":-4.257,"lon":103.306,"status":"uncertain","erupting":false},{"id":"261230","name":"Dempo","country":"Indonesia","type":"Stratovolcano(es)","evidence":"Uncertain","last_eruption":"Unknown","region":"Sunda-Banda Volcanic Regions","subregion":"Sunda Volcanic Arc","elevation":null,"lat":-4.016,"lon":103.121,"status":"uncertain","erupting":false},{"id":"261251","name":"Ranau","country":"Indonesia","type":"Caldera","evidence":"Uncertain","last_eruption":"Unknown","region":"Sunda-Banda Volcanic Regions","subregion":"Sunda Volcanic Arc","elevation":null,"lat":-4.871,"lon":103.925,"status":"uncertain","erupting":false},{"id":"261270","name":"Suoh","country":"Indonesia","type":"Caldera(s)","evidence":"Uncertain","last_eruption":"Unknown","region":"Sunda-Banda Volcanic Regions","subregion":"Sunda Volcanic Arc","elevation":null,"lat":-5.25,"lon":104.27,"status":"uncertain","erupting":false},{"id":"262000","name":"Krakatau","country":"Indonesia","type":"Caldera","evidence":"Uncertain","last_eruption":"Unknown","region":"Sunda-Banda Volcanic Regions","subregion":"Sunda Volcanic Arc","elevation":null,"lat":-6.1009,"lon":105.4233,"status":"uncertain","erupting":false},{"id":"263010","name":"Pulosari","country":"Indonesia","type":"Stratovolcano","evidence":"Uncertain","last_eruption":"Unknown","region":"Sunda-Banda Volcanic Regions","subregion":"Sunda Volcanic Arc","elevation":null,"lat":-6.343,"lon":105.978,"status":"uncertain","erupting":false},{"id":"263020","name":"Karang","country":"Indonesia","type":"Stratovolcano","evidence":"Uncertain","last_eruption":"Unknown","region":"Sunda-Banda Volcanic Regions","subregion":"Sunda Volcanic Arc","elevation":null,"lat":-6.268,"lon":106.05,"status":"uncertain","erupting":false},{"id":"263040","name":"Perbakti-Gagak","country":"Indonesia","type":"Stratovolcano(es)","evidence":"Uncertain","last_eruption":"Unknown","region":"Sunda-Banda Volcanic Regions","subregion":"Sunda Volcanic Arc","elevation":null,"lat":-6.75,"lon":106.675,"status":"uncertain","erupting":false},{"id":"263050","name":"Salak","country":"Indonesia","type":"Stratovolcano","evidence":"Uncertain","last_eruption":"Unknown","region":"Sunda-Banda Volcanic Regions","subregion":"Sunda Volcanic Arc","elevation":null,"lat":-6.716,"lon":106.733,"status":"uncertain","erupting":false},{"id":"263060","name":"Gede-Pangrango","country":"Indonesia","type":"Stratovolcano(es)","evidence":"Uncertain","last_eruption":"Unknown","region":"Sunda-Banda Volcanic Regions","subregion":"Sunda Volcanic Arc","elevation":null,"lat":-6.786,"lon":106.983,"status":"uncertain","erupting":false},{"id":"263070","name":"Patuha","country":"Indonesia","type":"Stratovolcano","evidence":"Uncertain","last_eruption":"Unknown","region":"Sunda-Banda Volcanic Regions","subregion":"Sunda Volcanic Arc","elevation":null,"lat":-7.162,"lon":107.4,"status":"uncertain","erupting":false},{"id":"263090","name":"Tangkuban Parahu","country":"Indonesia","type":"Stratovolcano","evidence":"Uncertain","last_eruption":"Unknown","region":"Sunda-Banda Volcanic Regions","subregion":"Sunda Volcanic Arc","elevation":null,"lat":-6.77,"lon":107.6,"status":"uncertain","erupting":false},{"id":"263100","name":"Papandayan","country":"Indonesia","type":"Stratovolcano(es)","evidence":"Uncertain","last_eruption":"Unknown","region":"Sunda-Banda Volcanic Regions","subregion":"Sunda Volcanic Arc","elevation":null,"lat":-7.3175,"lon":107.7306,"status":"uncertain","erupting":false},{"id":"263131","name":"Tampomas","country":"Indonesia","type":"Stratovolcano","evidence":"Uncertain","last_eruption":"Unknown","region":"Sunda-Banda Volcanic Regions","subregion":"Sunda Volcanic Arc","elevation":null,"lat":-6.7639,"lon":107.9612,"status":"uncertain","erupting":false},{"id":"263130","name":"Guntur","country":"Indonesia","type":"Complex","evidence":"Uncertain","last_eruption":"Unknown","region":"Sunda-Banda Volcanic Regions","subregion":"Sunda Volcanic Arc","elevation":null,"lat":-7.143,"lon":107.841,"status":"uncertain","erupting":false},{"id":"263140","name":"Galunggung","country":"Indonesia","type":"Stratovolcano","evidence":"Uncertain","last_eruption":"Unknown","region":"Sunda-Banda Volcanic Regions","subregion":"Sunda Volcanic Arc","elevation":null,"lat":-7.25,"lon":108.058,"status":"uncertain","erupting":false},{"id":"263150","name":"Talagabodas","country":"Indonesia","type":"Stratovolcano","evidence":"Uncertain","last_eruption":"Unknown","region":"Sunda-Banda Volcanic Regions","subregion":"Sunda Volcanic Arc","elevation":null,"lat":-7.208,"lon":108.07,"status":"uncertain","erupting":false},{"id":"263170","name":"Ciremai","country":"Indonesia","type":"Stratovolcano","evidence":"Uncertain","last_eruption":"Unknown","region":"Sunda-Banda Volcanic Regions","subregion":"Sunda Volcanic Arc","elevation":null,"lat":-6.895,"lon":108.408,"status":"uncertain","erupting":false},{"id":"263180","name":"Slamet","country":"Indonesia","type":"Stratovolcano","evidence":"Uncertain","last_eruption":"Unknown","region":"Sunda-Banda Volcanic Regions","subregion":"Sunda Volcanic Arc","elevation":null,"lat":-7.242,"lon":109.208,"status":"uncertain","erupting":false},{"id":"263200","name":"Dieng Volcanic Complex","country":"Indonesia","type":"Complex","evidence":"Uncertain","last_eruption":"Unknown","region":"Sunda-Banda Volcanic Regions","subregion":"Sunda Volcanic Arc","elevation":null,"lat":-7.2,"lon":109.879,"status":"uncertain","erupting":false},{"id":"263210","name":"Sundoro","country":"Indonesia","type":"Stratovolcano","evidence":"Uncertain","last_eruption":"Unknown","region":"Sunda-Banda Volcanic Regions","subregion":"Sunda Volcanic Arc","elevation":null,"lat":-7.3014,"lon":109.997,"status":"uncertain","erupting":false},{"id":"263220","name":"Sumbing","country":"Indonesia","type":"Stratovolcano","evidence":"Uncertain","last_eruption":"Unknown","region":"Sunda-Banda Volcanic Regions","subregion":"Sunda Volcanic Arc","elevation":null,"lat":-7.3819,"lon":110.0747,"status":"uncertain","erupting":false},{"id":"263240","name":"Merbabu","country":"Indonesia","type":"Stratovolcano","evidence":"Uncertain","last_eruption":"Unknown","region":"Sunda-Banda Volcanic Regions","subregion":"Sunda Volcanic Arc","elevation":null,"lat":-7.454,"lon":110.44,"status":"uncertain","erupting":false},{"id":"263250","name":"Merapi","country":"Indonesia","type":"Stratovolcano","evidence":"Uncertain","last_eruption":"Unknown","region":"Sunda-Banda Volcanic Regions","subregion":"Sunda Volcanic Arc","elevation":null,"lat":-7.54,"lon":110.446,"status":"uncertain","erupting":false},{"id":"263260","name":"Lawu","country":"Indonesia","type":"Stratovolcano","evidence":"Uncertain","last_eruption":"Unknown","region":"Sunda-Banda Volcanic Regions","subregion":"Sunda Volcanic Arc","elevation":null,"lat":-7.625,"lon":111.192,"status":"uncertain","erupting":false},{"id":"263281","name":"Kawi-Butak","country":"Indonesia","type":"Stratovolcano(es)","evidence":"Uncertain","last_eruption":"Unknown","region":"Sunda-Banda Volcanic Regions","subregion":"Sunda Volcanic Arc","elevation":null,"lat":-7.92,"lon":112.45,"status":"uncertain","erupting":false},{"id":"263280","name":"Kelud","country":"Indonesia","type":"Stratovolcano","evidence":"Uncertain","last_eruption":"Unknown","region":"Sunda-Banda Volcanic Regions","subregion":"Sunda Volcanic Arc","elevation":null,"lat":-7.935,"lon":112.314,"status":"uncertain","erupting":false},{"id":"263291","name":"Penanggungan","country":"Indonesia","type":"Stratovolcano","evidence":"Uncertain","last_eruption":"Unknown","region":"Sunda-Banda Volcanic Regions","subregion":"Sunda Volcanic Arc","elevation":null,"lat":-7.616,"lon":112.62,"status":"uncertain","erupting":false},{"id":"263290","name":"Arjuno-Welirang","country":"Indonesia","type":"Stratovolcano","evidence":"Uncertain","last_eruption":"Unknown","region":"Sunda-Banda Volcanic Regions","subregion":"Sunda Volcanic Arc","elevation":null,"lat":-7.733,"lon":112.575,"status":"uncertain","erupting":false},{"id":"263300","name":"Semeru","country":"Indonesia","type":"Stratovolcano","evidence":"Uncertain","last_eruption":"Unknown","region":"Sunda-Banda Volcanic Regions","subregion":"Sunda Volcanic Arc","elevation":null,"lat":-8.108,"lon":112.922,"status":"uncertain","erupting":false},{"id":"263310","name":"Tengger Caldera","country":"Indonesia","type":"Stratovolcano(es)","evidence":"Uncertain","last_eruption":"Unknown","region":"Sunda-Banda Volcanic Regions","subregion":"Sunda Volcanic Arc","elevation":null,"lat":-7.942,"lon":112.95,"status":"uncertain","erupting":false},{"id":"263320","name":"Lamongan","country":"Indonesia","type":"Stratovolcano","evidence":"Uncertain","last_eruption":"Unknown","region":"Sunda-Banda Volcanic Regions","subregion":"Sunda Volcanic Arc","elevation":null,"lat":-7.981,"lon":113.341,"status":"uncertain","erupting":false},{"id":"263330","name":"Iyang-Argapura","country":"Indonesia","type":"Complex","evidence":"Uncertain","last_eruption":"Unknown","region":"Sunda-Banda Volcanic Regions","subregion":"Sunda Volcanic Arc","elevation":null,"lat":-7.97,"lon":113.57,"status":"uncertain","erupting":false},{"id":"263340","name":"Raung","country":"Indonesia","type":"Stratovolcano","evidence":"Uncertain","last_eruption":"Unknown","region":"Sunda-Banda Volcanic Regions","subregion":"Sunda Volcanic Arc","elevation":null,"lat":-8.119,"lon":114.056,"status":"uncertain","erupting":false},{"id":"263351","name":"Baluran","country":"Indonesia","type":"Stratovolcano","evidence":"Uncertain","last_eruption":"Unknown","region":"Sunda-Banda Volcanic Regions","subregion":"Sunda Volcanic Arc","elevation":null,"lat":-7.85,"lon":114.37,"status":"uncertain","erupting":false},{"id":"263350","name":"Ijen","country":"Indonesia","type":"Stratovolcano(es)","evidence":"Uncertain","last_eruption":"Unknown","region":"Sunda-Banda Volcanic Regions","subregion":"Sunda Volcanic Arc","elevation":null,"lat":-8.058,"lon":114.242,"status":"uncertain","erupting":false},{"id":"264001","name":"Buyan-Bratan","country":"Indonesia","type":"Caldera","evidence":"Uncertain","last_eruption":"Unknown","region":"Sunda-Banda Volcanic Regions","subregion":"Sunda Volcanic Arc","elevation":null,"lat":-8.283,"lon":115.133,"status":"uncertain","erupting":false},{"id":"264010","name":"Batur","country":"Indonesia","type":"Caldera","evidence":"Uncertain","last_eruption":"Unknown","region":"Sunda-Banda Volcanic Regions","subregion":"Sunda Volcanic Arc","elevation":null,"lat":-8.2403,"lon":115.3775,"status":"uncertain","erupting":false},{"id":"264020","name":"Agung","country":"Indonesia","type":"Stratovolcano","evidence":"Uncertain","last_eruption":"Unknown","region":"Sunda-Banda Volcanic Regions","subregion":"Sunda Volcanic Arc","elevation":null,"lat":-8.343,"lon":115.508,"status":"uncertain","erupting":false},{"id":"264030","name":"Rinjani","country":"Indonesia","type":"Stratovolcano","evidence":"Uncertain","last_eruption":"Unknown","region":"Sunda-Banda Volcanic Regions","subregion":"Sunda Volcanic Arc","elevation":null,"lat":-8.42,"lon":116.47,"status":"uncertain","erupting":false},{"id":"264040","name":"Tambora","country":"Indonesia","type":"Stratovolcano","evidence":"Uncertain","last_eruption":"Unknown","region":"Sunda-Banda Volcanic Regions","subregion":"Sunda Volcanic Arc","elevation":null,"lat":-8.25,"lon":118.0,"status":"uncertain","erupting":false},{"id":"264050","name":"Sangeang Api","country":"Indonesia","type":"Complex","evidence":"Uncertain","last_eruption":"Unknown","region":"Sunda-Banda Volcanic Regions","subregion":"Sunda Volcanic Arc","elevation":null,"lat":-8.2,"lon":119.07,"status":"uncertain","erupting":false},{"id":"264060","name":"Sano, Wai","country":"Indonesia","type":"Caldera","evidence":"Uncertain","last_eruption":"Unknown","region":"Sunda-Banda Volcanic Regions","subregion":"Sunda Volcanic Arc","elevation":null,"lat":-8.7345,"lon":120.0074,"status":"uncertain","erupting":false},{"id":"264071","name":"Ranakah","country":"Indonesia","type":"Lava dome(s)","evidence":"Uncertain","last_eruption":"Unknown","region":"Sunda-Banda Volcanic Regions","subregion":"Sunda Volcanic Arc","elevation":null,"lat":-8.637,"lon":120.5302,"status":"uncertain","erupting":false},{"id":"264080","name":"Inierie","country":"Indonesia","type":"Stratovolcano","evidence":"Uncertain","last_eruption":"Unknown","region":"Sunda-Banda Volcanic Regions","subregion":"Sunda Volcanic Arc","elevation":null,"lat":-8.875,"lon":120.95,"status":"uncertain","erupting":false},